Id,Venue,City,State,Country,Year,Start Date,End Date,Event Duration (Days),Latitude,Longitude,Title,Organizers,Degree,Interval,lat,lon,Year (Time)
101st Annual Meeting of the Association of American Geographer_2005,101st Annual Meeting of the Association of American Geographer,Denver,Colorado,United States,2005,2005-04-05,2005-04-09,5,39.7392364,-104.984862,101st Annual Meeting of the Association of American Geographer,"Deborah MacPherson, Katy Borner",69,2005 to 2009,39.74171997,-104.9951992,2005-01-01 00:00:00
Lorentz Workshop_2005,Lorentz Workshop,Leiden,,Netherlands,2005,2005-04-07,2005-04-11,5,52.1594747,4.4908843,Simulating the Social Processes of Science,Andrea Scharnhorst,15,2005 to 2009,52.15878338,4.4904387,2005-01-01 00:00:00
"SLIS, Indiana University_2005","SLIS, Indiana University",Bloomington,Indiana,United States,2005,2005-04-25,2005-04-25,1,39.1670396,-86.5342881,Networks and Complex Systems Talk Series,Peter A. Hook,2,2005 to 2009,39.17027804,-86.54081045,2005-01-01 00:00:00
Abdus Salam International Centre for Theoretical Physics (ICTP)_2005,Abdus Salam International Centre for Theoretical Physics (ICTP),Trieste,,Italy,2005,2005-05-15,2005-05-27,13,45.6496485,13.7772781,School and Workshop on Structure and Function of Complex Networks,Katy Borner,63,2005 to 2009,45.65726365,13.78062646,2005-01-01 00:00:00
University of Illinois_2005,University of Illinois,Urbana-Champaign,Illinois,United States,2005,2005-05-17,2005-05-20,4,40.07615445,-88.22331341,Understanding Complex Systems 2004 Symposium,Peter A. Hook,2,2005 to 2009,40.07498368,-88.22148042,2005-01-01 00:00:00
Sixth Annual Alliance for Innovation in Science and Technology Information Mini-Conference_2005,Sixth Annual Alliance for Innovation in Science and Technology Information Mini-Conference,Santa Fe,New Mexico,United States,2005,2005-05-25,2005-05-26,2,35.6876096,-105.938456,Sixth Annual Alliance for Innovation in Science and Technology Information Mini-Conference,Peter A. Hook,2,2005 to 2009,35.68643892,-105.9431554,2005-01-01 00:00:00
San Diego University_2005,San Diego University,San Diego,California,United States,2005,2005-07-01,2005-07-20,20,32.7174202,-117.162772,Visualization Lab,"John Graham, Eric Frost, Bonnie DeVarco",4,2005 to 2009,32.72531626,-117.1653413,2005-01-01 00:00:00
Information Visualization Conference_2005,Information Visualization Conference,London,,United Kingdom,2005,2005-07-06,2005-07-08,3,51.5074456,-0.1277653,Information Visualization Conference,Katy Borner,63,2005 to 2009,51.51128277,-0.133061368,2005-01-01 00:00:00
Los Alamos National Laboratory_2005,Los Alamos National Laboratory,Los Alamos,New Mexico,United States,2005,2005-07-10,2005-07-20,11,35.88137,-106.298959,Los Alamos National Laboratory,Ketan Mane,1,2005 to 2009,35.87902263,-106.2992724,2005-01-01 00:00:00
International Conference of the International Society for Scientometrics and Informetrics_2005,International Conference of the International Society for Scientometrics and Informetrics,Stockholm,,Sweden,2005,2005-07-24,2005-07-28,5,59.3251172,18.0710935,10th International Conference of the International Society for Scientometrics and Informetrics,Katy Borner,63,2005 to 2009,59.32783,18.07586921,2005-01-01 00:00:00
San Diego Convention Center_2005,San Diego Convention Center,San Diego,California,United States,2005,2005-07-25,2005-07-29,5,32.7174202,-117.162772,ESRI International User Conference,Bonnie DeVarco,4,2005 to 2009,32.71510311,-117.1677006,2005-01-01 00:00:00
ESRI Headquaters_2005,ESRI Headquaters,Redlands,California,United States,2005,2005-07-30,2005-08-15,17,34.0550328,-117.1827445,ESRI Headquaters,"Wendy McKinney, Jenni McCormick",1,2005 to 2009,34.05270415,-117.1802243,2005-01-01 00:00:00
Wikimania 2005: The First International Wikimedia Conference_2005,Wikimania 2005: The First International Wikimedia Conference,Frankfurt,,Germany,2005,2005-08-04,2005-08-08,5,50.1106444,8.6820917,Wikimania 2005: The First International Wikimedia Conference,Jakob Voss,,2005 to 2009,50.11185421,8.679440412,2005-01-01 00:00:00
ESRI Regional Office_2005,ESRI Regional Office,Redlands,California,United States,2005,2005-08-15,2005-08-20,6,34.0550328,-117.1827445,ESRI Regional Office,Wendy McKinney,1,2005 to 2009,34.0454664,-117.1867089,2005-01-01 00:00:00
ESRI DC Office Vienna_2005,ESRI DC Office Vienna,"Washington, DC",,United States,2005,2005-09-01,2005-09-30,30,38.8950368,-77.0365427,ESRI DC Office Vienna,Deborah MacPherson,6,2005 to 2009,38.88641221,-77.03707785,2005-01-01 00:00:00
i-Light Symposium 2005_2005,i-Light Symposium 2005,Indianapolis,Indiana,United States,2005,2005-09-20,2005-09-21,2,39.7683331,-86.1583502,i-Light Symposium 2005,Katy Borner,63,2005 to 2009,39.76552166,-86.16352641,2005-01-01 00:00:00
"Lilly Library, Indiana University_2005","Lilly Library, Indiana University",Bloomington,Indiana,United States,2005,2005-10-03,2005-10-03,1,39.1670396,-86.5342881,InfoVis Lab Open House,,,2005 to 2009,39.16197544,-86.53705635,2005-01-01 00:00:00
Annual Meeting of the Society for Social Studies of Sciences_2005,Annual Meeting of the Society for Social Studies of Sciences,Pasadena,California,United States,2005,2005-10-20,2005-10-22,3,34.1476507,-118.144155,Annual Meeting of the Society for Social Studies of Sciences,"Katy Borner, Kevin Boyack, Kelly Sutton",63,2005 to 2009,34.14922194,-118.1501444,2005-01-01 00:00:00
Indiana University_2005,Indiana University,Bloomington,Indiana,United States,2005,2005-11-01,2005-11-01,1,39.1670396,-86.5342881,Places & Spaces Open Air,,,2005 to 2009,39.16249948,-86.52446447,2005-01-01 00:00:00
This Exhibit was supported by the UIUC Center for Advanced Study as part of the Age of Networks initiative Urbana-Champaign_2005,This Exhibit was supported by the UIUC Center for Advanced Study as part of the Age of Networks initiative Urbana-Champaign,Urbana-Champaign,Illinois,United States,2005,2005-11-03,2005-11-05,3,40.07615445,-88.22331341,The National Center for Supercomputing Applications (NCSA),"Katy Borner, Hank Green",63,2005 to 2009,40.06909293,-88.22313709,2005-01-01 00:00:00
National Institute of Informatics_2005,National Institute of Informatics,Tokyo,,United States,2005,2005-11-21,2005-11-21,1,29.5494132,-98.53222715,National Institute of Informatics,"Katy Borner, Ryutaru Ichise",63,2005 to 2009,29.55674144,-98.53572578,2005-01-01 00:00:00
Thomson Scientific/ISI_2005,Thomson Scientific/ISI,Philadelphia,Pennsylvania,United States,2005,2005-12-01,2005-12-02,2,39.9527237,-75.1635262,Informal Meeting for Mapping Science,,,2005 to 2009,39.95159482,-75.1624563,2005-01-01 00:00:00
New York Hall of Science_2006,New York Hall of Science,Queens,New York,United States,2006,2006-01-01,2006-01-01,1,40.7135078,-73.8283132,New York Hall of Science | Workshop on Science (Weather) Forecasts,"Julie Smith, Katy Borner | Marcia Rudy",63,2005 to 2009,40.71384544,-73.82887484,2006-01-01 00:00:00
"Science, Industry and Business Library of The New York Public Library_2006","Science, Industry and Business Library of The New York Public Library",New York City,New York,United States,2006,2006-01-01,2006-01-01,1,40.7127281,-74.0060152,"Science, Industry and Business Library of The New York Public Library",John Ganly,,2005 to 2009,40.70560436,-74.00712005,2006-01-01 00:00:00
National Science Foundation_2006,National Science Foundation,"Washington, DC",,United States,2006,2006-01-18,2006-02-02,16,38.8950368,-77.0365427,National Science Foundation,"Deborah MacPherson, Janice M. Hicks",7,2005 to 2009,38.89231489,-77.03347187,2006-01-01 00:00:00
National Institutes of Health_2006,National Institutes of Health,"Washington, DC",,United States,2006,2006-02-03,2006-02-08,6,38.8950368,-77.0365427,Symposium on Knowledge Discovery and Knowledge Management Tools,"Deborah MacPherson, Jessica Clausen",6,2005 to 2009,38.89559141,-77.03275516,2006-01-01 00:00:00
"Institute for the Future Workshop, Rockefeller Foundation_2006","Institute for the Future Workshop, Rockefeller Foundation",New York City,New York,United States,2006,2006-02-27,2006-02-27,1,40.7127281,-74.0060152,The Future of Science and Technology,Katy Borner,63,2005 to 2009,40.70697313,-74.00866771,2006-01-01 00:00:00
"State House, Indianapolis_2006","State House, Indianapolis",Indianapolis,Indiana,United States,2006,2006-03-01,2006-03-01,1,39.7683331,-86.1583502,Life Sciences Exhibit & Reception,Katy Borner,63,2005 to 2009,39.77021159,-86.16122929,2006-01-01 00:00:00
"The College of Management at Georgia Tech, Technology Square, Georgia Institute of Technology_2006","The College of Management at Georgia Tech, Technology Square, Georgia Institute of Technology",Atlanta,Georgia,United States,2006,2006-03-18,2006-03-20,3,33.7489924,-84.3902644,"The Atlanta Conference on Science and Technology Policy, The Georgia Tech School of Public Policy, PRIME Network of Excellence","Katy Borner, Elena B. Harari",63,2005 to 2009,33.74598921,-84.39163966,2006-01-01 00:00:00
Creative Good_2006,Creative Good,New York City,New York,United States,2006,2006-05-04,2006-05-05,2,40.7127281,-74.0060152,Gel Conference,Mark Hurst,,2005 to 2009,40.71126963,-74.01752481,2006-01-01 00:00:00
CENDI & NFAIS_2006,CENDI & NFAIS,"Washington, DC",,United States,2006,2006-05-04,2006-05-04,1,38.8950368,-77.0365427,The Visualization of Textual Information Workshop,"Debbie MacPherson, Bonnie Carroll",,2005 to 2009,38.89202827,-77.04411866,2006-01-01 00:00:00
CERC3 Chemistry Funding Agencies Meeting_2006,CERC3 Chemistry Funding Agencies Meeting,Amsterdam,,Netherlands,2006,2006-05-13,2006-05-13,1,52.3730796,4.8924534,CERC3 Chemistry Funding Agencies Meeting,Janice M. Hicks,1,2005 to 2009,52.38234099,4.899287771,2006-01-01 00:00:00
IBM Palisades_2006,IBM Palisades,Palisades,New York,United States,2006,2006-06-07,2006-06-09,3,41.01828215,-73.9163697,"Program Meeting, James S. McDonnell Foundation, 21st Century Science Initiative 2006",Katy Borner,63,2005 to 2009,41.01821466,-73.90814486,2006-01-01 00:00:00
International Conference on Complex Systems_2006,International Conference on Complex Systems,Boston,Massachusetts,United States,2006,2006-06-25,2006-06-30,6,42.3554334,-71.060511,International Conference on Complex Systems,"Katy Borner, Keith V. Nesbitt",63,2005 to 2009,42.35014485,-71.06175618,2006-01-01 00:00:00
Science of Science Policy Workshop_2006,Science of Science Policy Workshop,Helsinki,,Finland,2006,2006-07-12,2006-07-12,1,60.1674881,24.9427473,Towards a Macroscope for Decision Support in Science & Technology Policy,"Katy Borner, Ann Carlson",63,2005 to 2009,60.17160082,24.94563008,2006-01-01 00:00:00
National Cancer Institute_2006,National Cancer Institute,"Washington, DC",,United States,2006,2006-07-20,2006-07-20,1,38.8950368,-77.0365427,"How Information Visualization Can Support NCI's Fight Against Cancer, Cyberinfrastructures in Service of Health, Informatics in Action talk series","Ketan Mane, Katy Borner",64,2005 to 2009,38.88893258,-77.03498645,2006-01-01 00:00:00
"New Horizons in Internet Site Development Workshop, Banbury Center, Cold Spring Harbor Laboratory_2006","New Horizons in Internet Site Development Workshop, Banbury Center, Cold Spring Harbor Laboratory",Cold Spring Harbor,New York,United States,2006,2006-10-23,2006-10-25,3,40.8601065,-73.45290252,Mapping the Structure and Evolution of Science Locally and Globally,Katy Borner,63,2005 to 2009,40.86115082,-73.43750812,2006-01-01 00:00:00
"OCI, NSF_2006","OCI, NSF","Washington, DC",,United States,2006,2006-12-13,2006-12-13,1,38.8950368,-77.0365427,User-Friendly Cyberinfrastructures and Their Utility for Scholarly Knowledge Management Talk,,,2005 to 2009,38.88523845,-77.03094483,2006-01-01 00:00:00
American Museum of Science and Energy_2007,American Museum of Science and Energy,Oak Ridge,Tennessee,United States,2007,2007-01-01,2007-01-01,1,36.0103562,-84.2696449,American Museum of Science and Energy,Ken Mayes,1,2005 to 2009,36.00371527,-84.27028449,2007-01-01 00:00:00
National Academies_2007,National Academies,San Jose,California,United States,2007,2007-01-29,2007-01-30,2,37.3361663,-121.890591,Designing Cyberinfrastructure for Collaboration and Innovation,Bonnie DeVarco,4,2005 to 2009,37.33715061,-121.8953687,2007-01-01 00:00:00
SPIE Conference on Visualization and Data Analysis_2007,SPIE Conference on Visualization and Data Analysis,San Jose,California,United States,2007,2007-01-29,2007-01-30,2,37.3361663,-121.890591,SPIE Conference on Visualization and Data Analysis,,,2005 to 2009,37.33985863,-121.8986232,2007-01-01 00:00:00
Google_2007,Google,Mountain View,California,United States,2007,2007-01-31,2007-01-31,1,37.3893889,-122.0832101,"Scholarly Data, Network Science, and (Google) Maps  Modeling, Mapping, and Exploring the Dynamic Landscape of Science Talk",,,2005 to 2009,37.39024574,-122.0821928,2007-01-01 00:00:00
National Institute of Informatics_2007,National Institute of Informatics,Tokyo,,Japan,2007,2007-02-06,2007-02-06,1,35.6768601,139.7638947,National Institute of Informatics,Katy Borner,63,2005 to 2009,35.67628186,139.7601129,2007-01-01 00:00:00
National Institute of Science and Technology Policy (NISTEP)_2007,National Institute of Science and Technology Policy (NISTEP),Tokyo,,Japan,2007,2007-02-13,2007-02-13,1,35.6768601,139.7638947,Mapping Science: Analyzing and Visualizing the Dynamics of Scholarly Knowledge and Innovations Talk,Katy Borner,63,2005 to 2009,35.67535458,139.7567834,2007-01-01 00:00:00
New York Hall of Science_2007,New York Hall of Science,Queens,New York,United States,2007,2007-02-22,2007-02-22,1,40.7135078,-73.8283132,NYHS exhibit Tour for Google | NetSci Conference,Brad Paley,,2005 to 2009,40.70611519,-73.83154606,2007-01-01 00:00:00
233rd ACS National Meeting & Exposition_2007,233rd ACS National Meeting & Exposition,Chicago,Illinois,United States,2007,2007-03-25,2007-03-28,4,41.8755616,-87.6244212,233rd ACS National Meeting & Exposition,Vanessa Johnson-Evans,,2005 to 2009,41.87196238,-87.62982894,2007-01-01 00:00:00
"NSF Town Hall Meeting, American Chemical Society_2007","NSF Town Hall Meeting, American Chemical Society",Chicago,Illinois,United States,2007,2007-03-26,2007-03-26,1,41.8755616,-87.6244212,Mapping the Structure and Evolution of Chemistry,,,2005 to 2009,41.87325841,-87.61598549,2007-01-01 00:00:00
Association of American Geographers Annual Meeting_2007,Association of American Geographers Annual Meeting,San Francisco,California,United States,2007,2007-04-17,2007-04-21,5,37.7792588,-122.4193286,Association of American Geographers Annual Meeting,"Dawn Wright, Andre Skupin",2,2005 to 2009,37.78454441,-122.4149204,2007-01-01 00:00:00
Monroe County Public Library_2007,Monroe County Public Library,Bloomington,Indiana,United States,2007,2007-05-01,2007-05-30,30,39.1670396,-86.5342881,Monroe County Public Library | The Story of Science Maps Talk,"Katy Borner | Margaret Harter, Julie Smith",63,2005 to 2009,39.16875769,-86.53432796,2007-01-01 00:00:00
"Bloomington Science Cafe, Borders_2007","Bloomington Science Cafe, Borders",Bloomington,Indiana,United States,2007,2007-05-10,2007-05-10,1,39.1670396,-86.5342881,"Scholarly Data, Network Science, and (Google) Maps-Modeling, Mapping, and Exploring the Dynamic Landscape of Science Talk",,,2005 to 2009,39.1582244,-86.52688838,2007-01-01 00:00:00
Arlington Hilton_2007,Arlington Hilton,"Washington, DC",,United States,2007,2007-05-14,2007-05-14,1,38.8950368,-77.0365427,Complexity and Emergent Phenomena in Chemical Systems Workshop,,,2005 to 2009,38.89665722,-77.03615586,2007-01-01 00:00:00
National Science Foundation_2007,National Science Foundation,"Washington, DC",,United States,2007,2007-05-14,2007-05-14,1,38.8950368,-77.0365427,"Mapping the Evolving Interface of Mainstream Chemistry and the Fields of Biochemistry, Biology, and Bioengineering | NSF Workshop on Visual Exploration",,,2005 to 2009,38.89311139,-77.04084912,2007-01-01 00:00:00
National Geographic_2007,National Geographic,"Washington, DC",,United States,2007,2007-05-15,2007-05-15,1,38.8950368,-77.0365427,National Geographic,Allen Carroll,,2005 to 2009,38.89165219,-77.02892708,2007-01-01 00:00:00
Indiana University_2007,Indiana University,Bloomington,Indiana,United States,2007,2007-05-17,2007-05-17,1,39.1670396,-86.5342881,University Research Magazine Association,Lauren Bryant,,2005 to 2009,39.17009798,-86.53159355,2007-01-01 00:00:00
The 5th International Symposium on Digital Earth_2007,The 5th International Symposium on Digital Earth,San Francisco,California,United States,2007,2007-06-05,2007-06-09,5,37.7792588,-122.4193286,The 5th International Symposium on Digital Earth,Bonnie DeVarco,4,2005 to 2009,37.7844138,-122.4245148,2007-01-01 00:00:00
11th International Conference of the International Society for Scientometrics and Informetrics_2007,11th International Conference of the International Society for Scientometrics and Informetrics,Madrid,,Spain,2007,2007-06-25,2007-06-27,3,40.4167047,-3.7035825,11th International Conference of the International Society for Scientometrics and Informetrics,Katy Borner,63,2005 to 2009,40.4213611,-3.704534193,2007-01-01 00:00:00
New Network Theory Conference Keynote_2007,New Network Theory Conference Keynote,Amsterdam,,Netherlands,2007,2007-06-29,2007-06-29,1,52.3730796,4.8924534,New Network Theory Conference Keynote,Katy Borner,63,2005 to 2009,52.36888351,4.888075309,2007-01-01 00:00:00
11th International Conference on Information Visualization_2007,11th International Conference on Information Visualization,Zurich,,Switzerland,2007,2007-07-03,2007-07-06,4,47.3744489,8.5410422,11th International Conference on Information Visualization,"Sandra Wipfli, Remo Burkhard, Katy Borner, Bruce Herr",64,2005 to 2009,47.37290284,8.534128201,2007-01-01 00:00:00
"Hall of Flags, Administration Building_2007","Hall of Flags, Administration Building",Gaithersburg,Maryland,United States,2007,2007-07-04,2007-07-25,22,39.1399187,-77.1929215,National Institute of Standards and Technology,Patricia Hilton,,2005 to 2009,39.14157502,-77.18829061,2007-01-01 00:00:00
"ARchENA, Honggerberg_2007","ARchENA, Honggerberg",Zurich,,Switzerland,2007,2007-07-04,2007-07-26,23,47.3744489,8.5410422,Visualizing Knowledge,Remo Burkhard,1,2005 to 2009,47.37932663,8.550589283,2007-01-01 00:00:00
SIGGRAPH 2007_2007,SIGGRAPH 2007,San Diego,California,United States,2007,2007-08-05,2007-08-09,5,32.7174202,-117.162772,34th International Conference and Exhibition on Computer Graphics and Interactive Techniques,,,2005 to 2009,32.71502433,-117.1697648,2007-01-01 00:00:00
Office of Intergovernmental Solutions_2007,Office of Intergovernmental Solutions,"Washington, DC",,United States,2007,2007-08-14,2007-08-14,1,38.8950368,-77.0365427,Expedition Workshop/Mapping Public Goods And Services Connecting To Science And Scholarly Knowledge,Susan B. Turnbull,,2005 to 2009,38.89410851,-77.03372785,2007-01-01 00:00:00
Third International Conference on e-Social Science_2007,Third International Conference on e-Social Science,Ann Arbor,Michigan,United States,2007,2007-10-08,2007-10-09,2,42.2813722,-83.7484616,Third International Conference on e-Social Science,,,2005 to 2009,42.27584053,-83.75171481,2007-01-01 00:00:00
Society for Social Studies of Science (4S)_2007,Society for Social Studies of Science (4S),Montreal,Quebec,Canada,2007,2007-10-11,2007-10-13,3,45.5031824,-73.5698065,Society for Social Studies of Science (4S),Andrea Scharnhorst,5,2005 to 2009,45.49720137,-73.57224213,2007-01-01 00:00:00
"School of Library and Information Science, Indiana University_2007","School of Library and Information Science, Indiana University",Bloomington,Indiana,United States,2007,2007-10-15,2007-10-15,1,39.1670396,-86.5342881,Cyberinfrastructure for Network Science Center & InfoVis Lab Annual Open House,,,2005 to 2009,39.17110223,-86.53725007,2007-01-01 00:00:00
"Wells Library, Indiana University_2007","Wells Library, Indiana University",Bloomington,Indiana,United States,2007,2007-11-14,2007-11-14,1,39.1670396,-86.5342881,GIS Day 2007,,,2005 to 2009,39.1738208,-86.53860805,2007-01-01 00:00:00
Indiana Library Federation Annual Conference_2007,Indiana Library Federation Annual Conference,Indianapolis,Indiana,United States,2007,2007-11-14,2007-11-14,1,39.7683331,-86.1583502,Indiana Library Federation Annual Conference,Sarah Burton,,2005 to 2009,39.76797305,-86.15810759,2007-01-01 00:00:00
"Virtual Knowledge Studio, Royal Academy of Arts and Science (KNAW)_2007","Virtual Knowledge Studio, Royal Academy of Arts and Science (KNAW)",Amsterdam,,Netherlands,2007,2007-12-14,2007-12-14,1,52.3730796,4.8924534,Plenary Meeting: Transformation in and of Research,Andrea Scharnhorst,5,2005 to 2009,52.37809726,4.888298649,2007-01-01 00:00:00
American Museum of Science and Energy_2008,American Museum of Science and Energy,Oak Ridge,Tennessee,United States,2008,2008-01-01,2008-01-01,1,36.0103562,-84.2696449,American Museum of Science and Energy,Ken Mayes,1,2005 to 2009,36.01216438,-84.26829262,2008-01-01 00:00:00
University of Alberta_2008,University of Alberta,Edmonton,Alberta,Canada,2008,2008-01-01,2008-01-01,1,53.5462055,-113.491241,University of Alberta,,,2005 to 2009,53.5429799,-113.4914922,2008-01-01 00:00:00
OSTI Meeting_2008,OSTI Meeting,Oak Ridge,Tennessee,United States,2008,2008-01-03,2008-01-03,1,36.0103562,-84.2696449,OSTI Meeting,Katy Borner,63,2005 to 2009,36.01216318,-84.27083964,2008-01-01 00:00:00
Interdisciplinary Seminar of the Heraeus Foundation_2008,Interdisciplinary Seminar of the Heraeus Foundation,Bad Honnef,,Germany,2008,2008-01-20,2008-01-24,5,50.6448582,7.2272534,"Mapping the Evolution of Science Talk, Evolution and Physics  Concepts, Models and Applications",Andrea Scharnhorst,5,2005 to 2009,50.65254838,7.222715582,2008-01-01 00:00:00
Rathenau Institute_2008,Rathenau Institute,The Hague,,Netherlands,2008,2008-01-24,2008-01-24,1,52.0799838,4.3113461,Rathenau Institute,Peter van den Besselaar,1,2005 to 2009,52.07980467,4.308462243,2008-01-01 00:00:00
Tradewinds Island Resort_2008,Tradewinds Island Resort,St. Pete Beach,Florida,United States,2008,2008-01-24,2008-01-24,1,27.7253065,-82.741212,SUNBELT XXVIII International Sunbelt Social Network Conference,"Russell Duhon, Ann McCranie",1,2005 to 2009,27.73312972,-82.73743504,2008-01-01 00:00:00
Virtual Knowledge Studio_2008,Virtual Knowledge Studio,Amsterdam,,Netherlands,2008,2008-01-25,2008-01-25,1,52.3730796,4.8924534,Science from Above Talk,,,2005 to 2009,52.35998087,4.894957986,2008-01-01 00:00:00
"Semantic Technologies in Astronomy Workshop, Caltech_2008","Semantic Technologies in Astronomy Workshop, Caltech",Pasadena,California,United States,2008,2008-02-18,2008-02-21,4,34.1476507,-118.144155,Science of Science Keynote,Matthew J. Graham,,2005 to 2009,34.15176021,-118.1490428,2008-01-01 00:00:00
NSF Building_2008,NSF Building,"Washington, DC",,United States,2008,2008-03-10,2008-03-11,2,38.8950368,-77.0365427,NSF Workshop on Knowledge Management and Visualization Tools in Support of Discovery (I),,,2005 to 2009,38.89547204,-77.03604604,2008-01-01 00:00:00
National Cancer Institute_2008,National Cancer Institute,"Washington, DC",,United States,2008,2008-03-12,2008-03-12,1,38.8950368,-77.0365427,Recommendations for Evaluating Large Interdisciplinary Research Initiatives Talk,"Xuemei Feng, NIH/NCI",,2005 to 2009,38.89354176,-77.03278576,2008-01-01 00:00:00
Designing cyberinfrastructure to enable US- China collaboration in tobacco research Workshop_2008,Designing cyberinfrastructure to enable US- China collaboration in tobacco research Workshop,Beijing,,China,2008,2008-03-27,2008-03-29,3,40.190632,116.412144,Designing cyberinfrastructure to enable US- China collaboration in tobacco research Workshop,"Noshir Contractor, Daniel Zheng",2,2005 to 2009,40.1910908,116.403797,2008-01-01 00:00:00
San Diego Marriott_2008,San Diego Marriott,La Jolla,California,United States,2008,2008-03-31,2008-03-31,1,32.8401623,-117.2740777,"Cyberinfrastructure in Behavioral Medicine, Expert Panel Workshop",Katy Borner,63,2005 to 2009,32.83022446,-117.2713609,2008-01-01 00:00:00
National Research Council_2008,National Research Council,Ottawa,,Canada,2008,2008-04-03,2008-06-27,86,45.4208777,-75.6901106,National Research Council,,,2005 to 2009,45.41977934,-75.69342372,2008-01-01 00:00:00
New York Hall of Science_2008,New York Hall of Science,Queens,New York,United States,2008,2008-04-07,2008-04-08,2,40.7135078,-73.8283132,NSF Workshop on Knowledge Management and Visualization Tools in Support of Discovery (II),"Katy Borner, Bonnie Huang",63,2005 to 2009,40.71529336,-73.82546021,2008-01-01 00:00:00
Association of Amercian Geographers Annual Meeting_2008,Association of Amercian Geographers Annual Meeting,Boston,Massachusetts,United States,2008,2008-04-15,2008-04-19,5,42.3554334,-71.060511,Association of Amercian Geographers Annual Meeting,Hamid Ekbia,,2005 to 2009,42.36282287,-71.0643273,2008-01-01 00:00:00
28th CNLS Annual Conference_2008,28th CNLS Annual Conference,Santa Fe,New Mexico,United States,2008,2008-05-12,2008-05-13,2,35.6876096,-105.938456,Challenges in Information Science and Technology,Frank Alexander,,2005 to 2009,35.68501825,-105.9474804,2008-01-01 00:00:00
The National Science Library of the Chinese Academy of Sciences_2008,The National Science Library of the Chinese Academy of Sciences,Beijing,,China,2008,2008-05-17,2008-06-30,45,40.190632,116.412144,The National Science Library of the Chinese Academy of Sciences,,,2005 to 2009,40.18658953,116.4040063,2008-01-01 00:00:00
Indiana University Information Technology Strategic Plan 2 (ITSP2) event_2008,Indiana University Information Technology Strategic Plan 2 (ITSP2) event,Bloomington,Indiana,United States,2008,2008-05-20,2008-05-20,1,39.1670396,-86.5342881,3rd iteration and Illuminated Diagrams on display,,,2005 to 2009,39.16453081,-86.53404768,2008-01-01 00:00:00
Erasmus University Rotterdam_2008,Erasmus University Rotterdam,Rotterdam,,Netherlands,2008,2008-06-13,2008-09-30,110,51.9244424,4.47775,"Inaugural lecture of Paul Wouters, chair of Dynamics of Knowledge","Carmen Heijmerink, Kim de Vries van Overdam, Andrea Scharnhorst",5,2005 to 2009,51.92901941,4.479048613,2008-01-01 00:00:00
"Institute of Cognitive Sciences (ISC), Université du Québec_2008","Institute of Cognitive Sciences (ISC), Universite du Quebec",Montreal,,Canada,2008,2008-06-28,2008-07-06,9,45.5031824,-73.5698065,Summer School on Social Cognition (Minds and Societies),"Stevan Harnad, Guillaume Chicoisne",,2005 to 2009,45.50482616,-73.57432808,2008-01-01 00:00:00
"21st Century Science Maps Talk, Perimeter Institute_2008","21st Century Science Maps Talk, Perimeter Institute",Waterloo,Ontario,Canada,2008,2008-09-08,2008-09-12,5,43.4652699,-80.5222961,Science in the 21st Century,Sabine Hossenfelder,,2005 to 2009,43.4626211,-80.51910314,2008-01-01 00:00:00
NSF Workshop_2008,NSF Workshop,Arlington,Virginia,United States,2008,2008-09-11,2008-09-12,2,38.8769326,-77.0893094,A Deeper Look at the Visualization of Scientific Discovery,Susan Cozzens,,2005 to 2009,38.87949894,-77.097617,2008-01-01 00:00:00
10th International Conference on Science and Technology Indicators_2008,10th International Conference on Science and Technology Indicators,Vienna,,Austria,2008,2008-09-17,2008-09-20,4,48.2083537,16.3725042,10th International Conference on Science and Technology Indicators,Kevin W. Boyack,,2005 to 2009,48.20883909,16.3721738,2008-01-01 00:00:00
Biosphere 2_2008,Biosphere 2,Oracle,Arizona,United States,2008,2008-10-01,2008-10-02,2,32.6099702,-110.7651843,"Mechanistic Basis of Plant Adaptation, Grand Challenge Workshop","Timothy Kelley, David Salt",,2005 to 2009,32.61481342,-110.7712394,2008-01-01 00:00:00
"NIH Office of Portfolio Analysis and Strategic Initiatives (OPASI), National Institutes of Health_2008","NIH Office of Portfolio Analysis and Strategic Initiatives (OPASI), National Institutes of Health",Bethesda,Maryland,United States,2008,2008-10-02,2008-10-03,2,38.98127255,-77.12335871,Science of Science Management Meeting,Deborah Duran,,2005 to 2009,38.97776228,-77.12661789,2008-01-01 00:00:00
Cornell University_2008,Cornell University,Ithaca,New York,United States,2008,2008-11-13,2008-12-08,26,42.4374175,-76.54837235,Cornell University,Kathy Chian,,2005 to 2009,42.43577919,-76.54813536,2008-01-01 00:00:00
"Council Chamber for Economic, Social, and Environmental Council of the French government, Palais d'Iéna_2008","Council Chamber for Economic, Social, and Environmental Council of the French government, Palais d'Iena",Paris,,France,2008,2008-11-24,2008-11-25,2,48.8534951,2.3483915,Science in Society: Dialogues and Scientific Responsibility Conference,Colin Allen,,2005 to 2009,48.85153456,2.344089433,2008-01-01 00:00:00
"'Program for the Future' Conference, San Jose Tech Museum of Innovation, Stanford University_2008","'Program for the Future' Conference, San Jose Tech Museum of Innovation, Stanford University",Stanford,California,United States,2008,2008-12-08,2008-12-09,2,37.4265407,-122.1703055,Doug Engelbarts Mother of All Demos 40th year anniversary,,,2005 to 2009,37.41922313,-122.1722283,2008-01-01 00:00:00
Center of Advanced European Studies and Research_2008,Center of Advanced European Studies and Research,Bonn,,Germany,2008,2008-12-11,2008-12-19,9,50.7352621,7.1024635,Center of Advanced European Studies and Research,,,2005 to 2009,50.7367427,7.107494964,2008-01-01 00:00:00
"3rd Annual iFQ Conference, Institute for Research Information and Quality Assurance_2008","3rd Annual iFQ Conference, Institute for Research Information and Quality Assurance",Bonn,,Germany,2008,2008-12-11,2008-12-12,2,50.7352621,7.1024635,Foresight - Between Science and Fiction Tagung,"Frau Heise, Herr Hornborstel",,2005 to 2009,50.73656738,7.099579041,2008-01-01 00:00:00
The Institute for Research Information and Quality Assurance_2008,The Institute for Research Information and Quality Assurance,Bonn,,Germany,2008,2008-12-20,2008-12-31,12,50.7352621,7.1024635,The Institute for Research Information and Quality Assurance,,,2005 to 2009,50.73528767,7.106641961,2008-01-01 00:00:00
Science Express Train_2009,Science Express Train,,,Germany,2009,2009-01-01,2009-01-01,1,51.1638175,10.4478313,Science Express Train,Oliver Wia (www.archi-me-des.com),,2005 to 2009,51.16264456,10.44218277,2009-01-01 00:00:00
The Institute for Research Information and Quality Assurance_2009,The Institute for Research Information and Quality Assurance,Bonn,,Germany,2009,2009-01-01,2009-12-31,365,50.7352621,7.1024635,The Institute for Research Information and Quality Assurance,,,2005 to 2009,50.72818525,7.105112521,2009-01-01 00:00:00
University of Alberta_2009,University of Alberta,Edmonton,,Canada,2009,2009-01-01,2009-01-01,1,53.5462055,-113.491241,University of Alberta,,,2005 to 2009,53.54410227,-113.4840332,2009-01-01 00:00:00
Osaka University_2009,Osaka University,Osaka,,Japan,2009,2009-01-22,2009-01-22,1,34.6937569,135.5014539,SANKEN International Symposium,,,2005 to 2009,34.69204333,135.4890957,2009-01-01 00:00:00
"Virtual Knowledge Studio, Virtual Knowledge Studio, Royal Netherlands Academy of Arts and Sciences_2009","Virtual Knowledge Studio, Virtual Knowledge Studio, Royal Netherlands Academy of Arts and Sciences",Amsterdam,,Netherlands,2009,2009-02-13,2009-02-13,1,52.3730796,4.8924534,CYSWIK (Can You See What I Know) Reception,Andrea Scharnhorst,5,2005 to 2009,52.36906821,4.888468924,2009-01-01 00:00:00
Seed Magazine Headquarters_2009,Seed Magazine Headquarters,New York,New York,United States,2009,2009-02-23,2009-02-24,2,40.7127281,-74.0060152,Seed Magazine Headquarters,,,2005 to 2009,40.71192167,-74.00312984,2009-01-01 00:00:00
Binghamton University_2009,Binghamton University,Binghamton,New York,United States,2009,2009-02-25,2009-04-09,44,42.098698,-75.9125187,Science Library,Jill Dixon,,2005 to 2009,42.10071825,-75.91353393,2009-01-01 00:00:00
Japan Society for the Promotion of Science_2009,Japan Society for the Promotion of Science,Tokyo,,Japan,2009,2009-03-01,2009-06-01,93,35.6768601,139.7638947,Japan Society for the Promotion of Science,Masayuki NUMAO,,2005 to 2009,35.68629103,139.7657504,2009-01-01 00:00:00
German Physical Society_2009,German Physical Society,Dresden,,Germany,2009,2009-03-22,2009-03-27,6,51.0493286,13.7381437,Physics of Socio-Economic Systems Annual Meeting,Dirk Helbing,,2005 to 2009,51.05020149,13.73512377,2009-01-01 00:00:00
Stanford University_2009,Stanford University,Stanford,California,United States,2009,2009-04-15,2009-12-18,248,37.4265407,-122.1703055,Stanford University,,,2005 to 2009,37.42782845,-122.1698726,2009-01-01 00:00:00
L'Istituto Veneto di Scienze_2009,L'Istituto Veneto di Scienze,Venice,,Italy,2009,2009-04-21,2009-04-25,5,45.4371908,12.3345898,NetSci 2009,"Guido Caldarelli, Vittoria Colizza",,2005 to 2009,45.43681857,12.33381141,2009-01-01 00:00:00
New York Hall of Science_2009,New York Hall of Science,Queens,New York,United States,2009,2009-05-06,2009-05-08,3,40.7135078,-73.8283132,"CWA Workshop | NSF/JSMF Workshop on How to Measure, Map, and Dramatize Science","Katy Borner, Stephen Uzzo, Joy Moore",63,2005 to 2009,40.70391394,-73.82247429,2009-01-01 00:00:00
International Council for Scientific and Technical Information Conference_2009,International Council for Scientific and Technical Information Conference,Ottawa,,Canada,2009,2009-07-09,2009-07-10,2,45.4208777,-75.6901106,International Council for Scientific and Technical Information Conference,Leah Vanderjagt,,2005 to 2009,45.42074513,-75.6888385,2009-01-01 00:00:00
Society for Philosophy and Psychology Annual Conference_2009,Society for Philosophy and Psychology Annual Conference,Bloomington,Indiana,United States,2009,2009-07-12,2009-07-14,3,39.1670396,-86.5342881,Society for Philosophy and Psychology Annual Conference,,,2005 to 2009,39.16734075,-86.53260009,2009-01-01 00:00:00
International Conference on Scientometrics and Informetrics_2009,International Conference on Scientometrics and Informetrics,Rio de Janeiro,,Brazil,2009,2009-07-14,2009-07-17,4,-22.9110137,-43.2093727,International Conference on Scientometrics and Informetrics,"Abel Packer, Elenice de Castro",,2005 to 2009,-22.89869749,-43.21143208,2009-01-01 00:00:00
Indiana University_2009,Indiana University,Bloomington,Indiana,United States,2009,2009-07-14,2009-07-16,3,39.1670396,-86.5342881,NACAP 2009,,,2005 to 2009,39.1660778,-86.53672613,2009-01-01 00:00:00
U.S. Census Bureau and World Bank Seminar_2009,U.S. Census Bureau and World Bank Seminar,"Washington, DC",,United States,2009,2009-07-15,2009-07-16,2,38.8950368,-77.0365427,"Innovative Approaches to Turn Statistics into Knowledge, Organisation for Economic Co-operation and Development",Deborah MacPherson,6,2005 to 2009,38.89654454,-77.03870549,2009-01-01 00:00:00
"Gordon Research Conference, Magdalen College, Oxford University_2009","Gordon Research Conference, Magdalen College, Oxford University",Oxford,,United Kingdom,2009,2009-07-26,2009-07-31,6,51.7520131,-1.2578499,"Envisioning and Communicating Science, Visualization in Science and Education",Shaaron Ainsworth,,2005 to 2009,51.75183954,-1.255877639,2009-01-01 00:00:00
Workshop: Information Kinetics_2009,Workshop: Information Kinetics,Arteleku,,Spain,2009,2009-08-12,2009-08-12,1,43.37617145,-2.948012951,Workshop: Information Kinetics,Angela Zoss,3,2005 to 2009,43.37032806,-2.950117873,2009-01-01 00:00:00
European Conference on Artificial Life 2009_2009,European Conference on Artificial Life 2009,Budapest,,Hungary,2009,2009-08-21,2009-08-21,1,47.4978789,19.0402383,European Conference on Artificial Life 2009,George Kampis,,2005 to 2009,47.50359301,19.04168717,2009-01-01 00:00:00
University of Surrey_2009,University of Surrey,Guildford,,United Kingdom,2009,2009-09-14,2009-09-18,5,51.2356068,-0.5732063,"Conference on the Social Processes of Science, European Social Simulation Association,",Nigel Gilbert,,2005 to 2009,51.23936647,-0.562829296,2009-01-01 00:00:00
Atlanta Conference on Science and Innovation Policy_2009,Atlanta Conference on Science and Innovation Policy,Atlanta,Georgia,United States,2009,2009-10-02,2009-10-03,2,33.7489924,-84.3902644,Atlanta Conference on Science and Innovation Policy,Margaret Clements,1,2005 to 2009,33.75294756,-84.38590878,2009-01-01 00:00:00
Technology Transfer Society (T2S) Annual Conference_2009,Technology Transfer Society (T2S) Annual Conference,Greensboro,North Carolina,United States,2009,2009-10-02,2009-10-02,1,36.0726355,-79.7919754,Technology Transfer Society (T2S) Annual Conference,Margaret Clements,1,2005 to 2009,36.06808856,-79.79360552,2009-01-01 00:00:00
Modeling Science Workshop_2009,Modeling Science Workshop,Amsterdam,,Netherlands,2009,2009-10-06,2009-10-09,4,52.3730796,4.8924534,Modeling Science Workshop,"Peter van den Besselaar, Katy Borner, Andrea Scharnhorst",69,2005 to 2009,52.38009357,4.89845947,2009-01-01 00:00:00
National Institutes of Health_2009,National Institutes of Health,Bethesda,Maryland,United States,2009,2009-10-21,2009-10-21,1,38.98127255,-77.12335871,NWB and Sci2 Tool Workshop,James Onken,,2005 to 2009,38.97426329,-77.12539909,2009-01-01 00:00:00
George Washington University_2009,George Washington University,"Washington, DC",,United States,2009,2009-10-21,2009-10-21,1,38.8950368,-77.0365427,"STEM Enterprise: Measures for Innovation and Competitiveness | Science of Science Policy (SoSP) Workshop: Best Practices in Research & Development Prioritization, Management, and Evaluation",Martin Sokoloski,,2005 to 2009,38.89797109,-77.04673332,2009-01-01 00:00:00
IEEE International Conference on e-Science_2009,IEEE International Conference on e-Science,Oxford,,United Kingdom,2009,2009-12-07,2009-12-09,3,51.7520131,-1.2578499,5th IEEE International Conference on e-Science,Eric Meyer,,2005 to 2009,51.76296538,-1.262890332,2009-01-01 00:00:00
American Geophysical Union_2009,American Geophysical Union,San Francisco,California,United States,2009,2009-12-14,2009-12-18,5,37.7792588,-122.4193286,Fall Meeting,Peter Fox,,2005 to 2009,37.77430612,-122.4286826,2009-01-01 00:00:00
ARS Electronica Museum_2010,ARS Electronica Museum,Linz,,Austria,2010,2010-01-01,2010-01-01,1,48.3059078,14.286198,"Emergent Mosaic of Wikipedian Activity, The World in 100 Years",,,2010 to 2014,48.30307631,14.28444043,2010-01-01 00:00:00
The Institute for Research Information and Quality Assurance_2010,The Institute for Research Information and Quality Assurance,Bonn,,Germany,2010,2010-01-01,2010-12-31,365,50.7352621,7.1024635,The Institute for Research Information and Quality Assurance,,,2010 to 2014,50.73576036,7.102555592,2010-01-01 00:00:00
University of Florida_2010,University of Florida,Gainesville,Florida,United States,2010,2010-01-15,2010-06-30,167,29.6519684,-82.3249846,Marston Science Library | NIH Workshop on Identifiers and Disambiguation in Scholarly Work,Katy Borner | Valrie Davis,63,2010 to 2014,29.64945102,-82.31660241,2010-01-01 00:00:00
University of Michigan_2010,University of Michigan,Ann Arbor,Michigan,United States,2010,2010-02-10,2010-02-10,1,42.2813722,-83.7484616,SEAD DataNet NSF Site Visit,Robert Ping,1,2010 to 2014,42.27361888,-83.74682696,2010-01-01 00:00:00
University of Southern California_2010,University of Southern California,Los Angeles,California,United States,2010,2010-02-19,2010-02-20,2,34.0536909,-118.242766,International Seminar on Multidimensional Network Theory,Noshir Contractor,2,2010 to 2014,34.05403371,-118.2438615,2010-01-01 00:00:00
Indiana University_2010,Indiana University,Bloomington,Indiana,United States,2010,2010-03-04,2010-03-05,2,39.1670396,-86.5342881,NSF/JSMF Workshop on Mapping Science and the Semantic Web,Mark A. Price,,2010 to 2014,39.16172808,-86.53014107,2010-01-01 00:00:00
Japan Science and Technology Agency_2010,Japan Science and Technology Agency,Tokyo,,Japan,2010,2010-03-09,2010-03-10,2,35.6768601,139.7638947,Center for Research and Development Strategy (CRDS),"Asako Okamura, Katy Borner",64,2010 to 2014,35.67922806,139.752839,2010-01-01 00:00:00
Leipziger Kongress für Information und Bibliothek_2010,Leipziger Kongress fur Information und Bibliothek,Leipzig,,Germany,2010,2010-03-15,2010-03-18,4,51.3406321,12.3747329,Leipziger Kongress fur Information und Bibliothek,,,2010 to 2014,51.33603498,12.37591097,2010-01-01 00:00:00
The Division Physics of Socio-Economic Systems_2010,The Division Physics of Socio-Economic Systems,Regensburg,,Germany,2010,2010-03-22,2010-03-26,5,49.0195333,12.0974869,German Physical Society,,,2010 to 2014,49.02728297,12.10134123,2010-01-01 00:00:00
EuroVis 2010_2010,EuroVis 2010,Bordeaux,,France,2010,2010-07-09,2010-07-11,3,44.841225,-0.5800364,EuroVis 2010,,,2010 to 2014,44.83730873,-0.587429331,2010-01-01 00:00:00
The University of Queensland_2010,The University of Queensland,Brisbane,,Australia,2010,2010-07-21,2010-07-25,5,-27.4689682,153.0234991,Joint Conference on Digital Libraries 2010,,,2010 to 2014,-27.47057851,153.0292179,2010-01-01 00:00:00
Science Foo Camp (scifoo) 2010_2010,Science Foo Camp (scifoo) 2010,Mountain View,California,United States,2010,2010-07-31,2010-08-01,2,37.3893889,-122.0832101,Science Foo Camp (scifoo) 2010,"Johan Bollen, Bonnie DeVarco",4,2010 to 2014,37.39345649,-122.0815176,2010-01-01 00:00:00
New York Hall of Science_2010,New York Hall of Science,New York,New York,United States,2010,2010-08-12,2010-08-13,2,40.7127281,-74.0060152,First National VIVO Conference Enabling National Networking of Scientists,,,2010 to 2014,40.70657378,-74.00809164,2010-01-01 00:00:00
"University of California, Los Angeles_2010","University of California, Los Angeles",Los Angeles,California,United States,2010,2010-08-15,2010-08-27,13,34.0536909,-118.242766,NEH Institute on Network Analysis for the Humanities,Tim Tangherlini,1,2010 to 2014,34.0548282,-118.2396021,2010-01-01 00:00:00
Science and Technology Indicators Conference_2010,Science and Technology Indicators Conference,Leiden,,Netherlands,2010,2010-09-08,2010-09-11,4,52.1594747,4.4908843,Science and Technology Indicators Conference,Ed Noijons,,2010 to 2014,52.16601041,4.502237764,2010-01-01 00:00:00
"University Library, Leipzig_2010","University Library, Leipzig",Leipzig,,Germany,2010,2010-09-25,2010-09-26,2,51.3406321,12.3747329,Wikipedia: Critical Point of View,Andreas Mollencamp,,2010 to 2014,51.33259468,12.37564223,2010-01-01 00:00:00
ESF-COST High-Level Research Conference_2010,ESF-COST High-Level Research Conference,Acquafredda di Maratea,,Italy,2010,2010-10-02,2010-10-07,6,40.0352975,15.6720594,Future Internet and Society: A Complex Systems Perspective,"Romualdo Pastor-Satorras, Claudio Castellan",,2010 to 2014,40.03622067,15.6733005,2010-01-01 00:00:00
University College Dublin_2010,University College Dublin,Dublin,,Ireland,2010,2010-11-01,2010-11-30,30,53.3493795,-6.2605593,Places & Spaces: Mapping Science,,,2010 to 2014,53.35067891,-6.262856104,2010-01-01 00:00:00
UCD Conference_2010,UCD Conference,Dublin,,Ireland,2010,2010-11-15,2010-11-16,2,53.3493795,-6.2605593,Cultural Dimensions of Innovation,"Petra Ahrweiler, Andre Skupin, Katy Borner",65,2010 to 2014,53.35328861,-6.264808522,2010-01-01 00:00:00
Challenges of Visualizing Biological Data Workshop_2010,Challenges of Visualizing Biological Data Workshop,Bristol,,United Kingdom,2010,2010-11-16,2010-11-17,2,51.4538022,-2.5972985,Challenges of Visualizing Biological Data Workshop,Katy Borner,63,2010 to 2014,51.44761745,-2.593146821,2010-01-01 00:00:00
Kavli Royal Society International Center_2010,Kavli Royal Society International Center,London,,United Kingdom,2010,2010-11-16,2010-11-17,2,51.5074456,-0.1277653,Royal Society Global Science Report Launch Conference,"David Stilgoe, Katy Borner",63,2010 to 2014,51.50084332,-0.132045719,2010-01-01 00:00:00
National Academy of Science Workshop_2010,National Academy of Science Workshop,"Washington, DC",,United States,2010,2010-11-29,2010-11-30,2,38.8950368,-77.0365427,Science of Science Measurement | Star Metrics,"Julia Lane and Katy Borner | Julia Lane, Katy Borner",63,2010 to 2014,38.89764651,-77.03618487,2010-01-01 00:00:00
Workshop_2010,Workshop,"Washington, DC",,United States,2010,2010-12-01,2010-12-02,2,38.8950368,-77.0365427,Mapping the Structure and Evolution of Sustainability Science,"Julia Lane, Katy Borner",63,2010 to 2014,38.89652172,-77.03893099,2010-01-01 00:00:00
ARS Electronica Museum_2011,ARS Electronica Museum,Linz,,Austria,2011,2011-01-01,2011-01-01,1,48.3059078,14.286198,"Emergent Mosaic of Wikipedian Activity, The World in 100 Years",,,2010 to 2014,48.30716026,14.2885929,2011-01-01 00:00:00
Science Express Train_2011,Science Express Train,,,Germany,2011,2011-01-01,2011-01-01,1,51.1638175,10.4478313,Science Express Train,,,2010 to 2014,51.16554974,10.44949961,2011-01-01 00:00:00
The Institute for Research Information and Quality Assurance_2011,The Institute for Research Information and Quality Assurance,Bonn,,Germany,2011,2011-01-01,2011-12-31,365,50.7352621,7.1024635,The Institute for Research Information and Quality Assurance,,,2010 to 2014,50.73186198,7.1076512,2011-01-01 00:00:00
iConference_2011,iConference,Seattle,Washington,United States,2011,2011-02-08,2011-02-11,4,47.6038321,-122.330062,Scientometrics Workshop,Angela Zoss,3,2010 to 2014,47.60499337,-122.3326121,2011-01-01 00:00:00
AAAS Annual Meeting_2011,AAAS Annual Meeting,Washington,District of Columbia,United States,2011,2011-02-17,2011-02-21,5,38.8950368,-77.0365427,AAAS Annual Meeting,Katy Borner,63,2010 to 2014,38.89650216,-77.03789207,2011-01-01 00:00:00
Northwestern University_2011,Northwestern University,Chicago,Illinois,United States,2011,2011-03-05,2011-03-06,2,41.8755616,-87.6244212,2011 Science of Team Science Conference | Web Science Meets Network Science Workshop,"Holly Falk-Krezinski, Katy Borner | Noshir Contractor, Katy Borner",65,2010 to 2014,41.87198984,-87.62931502,2011-01-01 00:00:00
University of Michigan_2011,University of Michigan,Ann Arbor,Michigan,United States,2011,2011-03-07,2011-03-24,18,42.2813722,-83.7484616,University of Michigan,Tim Utter,,2010 to 2014,42.29070107,-83.75068307,2011-01-01 00:00:00
University of Huddersfield_2011,University of Huddersfield,,,United Kingdom,2011,2011-03-10,2011-03-11,2,54.7023545,-3.2765753,"ADS-VIS2011: Making visible the invisible: Art, Design and Science in Data Visualisation",Michael J. Stamper,3,2010 to 2014,54.70472366,-3.274688798,2011-01-01 00:00:00
International Workshop on Mining the Digital Traces of Science_2011,International Workshop on Mining the Digital Traces of Science,Paris,,France,2011,2011-03-22,2011-03-25,4,48.8534951,2.3483915,International Workshop on Mining the Digital Traces of Science,Angela Zoss,3,2010 to 2014,48.84753858,2.352176443,2011-01-01 00:00:00
Purdue University_2011,Purdue University,Indianapolis,Indiana,United States,2011,2011-04-05,2011-04-06,2,39.7683331,-86.1583502,HUBbubZero User Workshop,Katy Borner,63,2010 to 2014,39.77161587,-86.16296103,2011-01-01 00:00:00
Torun's Festival of Science and Art_2011,Torun's Festival of Science and Art,Torun,,Poland,2011,2011-04-15,2011-04-19,5,53.0145361,18.59658314,Torun's Festival of Science and Art,Veslava Osinska,4,2010 to 2014,53.00966269,18.60093117,2011-01-01 00:00:00
Scientific Mapping and Analytics_2011,Scientific Mapping and Analytics,Santa Fe,New Mexico,United States,2011,2011-05-10,2011-05-10,1,35.6876096,-105.938456,Scientific Mapping and Analytics,"Gali Halevi, Katy Borner",65,2010 to 2014,35.69154502,-105.9316778,2011-01-01 00:00:00
Pedagogical University of Cracow_2011,Pedagogical University of Cracow,Cracow,,Poland,2011,2011-05-16,2011-05-17,2,50.0469432,19.99715344,Educational Space in Library,Veslava Osinska,4,2010 to 2014,50.05273618,19.99922061,2011-01-01 00:00:00
COST Workshop_2011,COST Workshop,Eindhoven,,Netherlands,2011,2011-05-18,2011-05-20,3,51.4392648,5.478633,COST Workshop,Andrea Scharnhorst,15,2010 to 2014,51.43516139,5.488016979,2011-01-01 00:00:00
University of North Carolina_2011,University of North Carolina,Charlotte,North Carolina,United States,2011,2011-06-02,2011-06-02,1,35.2272086,-80.8430827,Institute for Advanced Technologies in the Digital Humanities,"Richard Preville, Katy Borner",63,2010 to 2014,35.23202548,-80.84695165,2011-01-01 00:00:00
Collaboration visit_2011,Collaboration visit,Zurich,,Switzerland,2011,2011-06-04,2011-07-04,31,47.3744489,8.5410422,Collaboration visit,"Dirk Helbig, Katy Borner",63,2010 to 2014,47.3765128,8.534818926,2011-01-01 00:00:00
Network Analysis Conference_2011,Network Analysis Conference,Naples,,Italy,2011,2011-06-23,2011-06-25,3,40.8358846,14.2487679,Network Analysis Conference,"Loet Leydesdorff, Maria Rosaria D'Esposito",,2010 to 2014,40.8399949,14.2398743,2011-01-01 00:00:00
ISSI_2011,ISSI,Durban,,South Africa,2011,2011-07-04,2011-07-15,12,-29.861825,31.009909,ISSI,,,2010 to 2014,-29.85234104,31.01738922,2011-01-01 00:00:00
Gordon Research Conference at Bryant University_2011,Gordon Research Conference at Bryant University,Denver,Colorado,United States,2011,2011-07-10,2011-07-15,6,39.7392364,-104.984862,SciDAC 2011 Scientific Discovery through Advanced Computing Program | Visualization in Science & Education - Transformation by Visualization: Radical Effects on Learning in Science and Across Education,Katy Borner | Michael J. Stamper,66,2010 to 2014,39.73800946,-104.9815902,2011-01-01 00:00:00
VIVO 2011 Conference_2011,VIVO 2011 Conference,"Washington, DC",,United States,2011,2011-08-24,2011-08-26,3,38.8950368,-77.0365427,VIVO 2011 Conference,Katy Borner,63,2010 to 2014,38.89126812,-77.03682062,2011-01-01 00:00:00
Battelle Center for Science & Technology_2011,Battelle Center for Science & Technology,Columbus,Ohio,United States,2011,2011-09-09,2011-09-09,1,39.9622601,-83.0007065,Battelle Center for Science & Technology opening reception,Caroline Wagner,,2010 to 2014,39.95781253,-82.99930666,2011-01-01 00:00:00
Held jointly by the Advanced Research Projects Agency for Energy (ARPA-E) and the U.S. Department of Energy's Office of Energy Efficiency and Renewable Energy (EERE)_2011,Held jointly by the Advanced Research Projects Agency for Energy (ARPA-E) and the U.S. Department of Energy's Office of Energy Efficiency and Renewable Energy (EERE),"Washington, DC",,United States,2011,2011-09-14,2011-09-14,1,38.8950368,-77.0365427,"Program Impact Evaluation, Workshop",Jeff Dowd,,2010 to 2014,38.89095775,-77.04217015,2011-01-01 00:00:00
NSF Workshop_2011,NSF Workshop,Arlington,Virginia,United States,2011,2011-09-15,2011-09-15,1,38.8769326,-77.0893094,"Data Coding, Analysis, Archiving, and Sharing for Open Collaboration: From OpenSHAPA to Open Data Sharing","Karen Adolph, Penelope Sanderson",,2010 to 2014,38.87654709,-77.07708064,2011-01-01 00:00:00
"COLLNET 2011, 7th International Conference_2011","COLLNET 2011, 7th International Conference",Istanbul,,Turkey,2011,2011-09-20,2011-09-23,4,41.006381,28.9758715,"Webometrics, Informetrics and Scientometrics (WIS)",Bulent Ozel,,2010 to 2014,41.00808676,28.97651761,2011-01-01 00:00:00
University of North Texas_2011,University of North Texas,Denton,Texas,United States,2011,2011-09-30,2012-01-24,117,33.1838787,-97.1413417,University of North Texas,Kathryn Masten,,2010 to 2014,33.18526215,-97.14079473,2011-01-01 00:00:00
Taming Complexity TTI Vanguard Conference_2011,Taming Complexity TTI Vanguard Conference,"Washington, DC",,United States,2011,2011-10-04,2011-10-04,1,38.8950368,-77.0365427,Taming Complexity TTI Vanguard Conference,Hal Levin,,2010 to 2014,38.89917272,-77.03291387,2011-01-01 00:00:00
GWU Statistics Center_2011,GWU Statistics Center,Rockville,Maryland,United States,2011,2011-10-06,2011-10-06,1,39.0817985,-77.1516844,NIH SWAM Network Meeting,Irene Eckstrand,,2010 to 2014,39.08186351,-77.14927935,2011-01-01 00:00:00
Indiana University_2011,Indiana University,Bloomington,Indiana,United States,2011,2011-10-10,2011-10-10,1,39.1670396,-86.5342881,IN CTSI retreat,"Bill Hetrick, Bill Barnett",,2010 to 2014,39.17430727,-86.53316868,2011-01-01 00:00:00
National Academy of Sciences_2011,National Academy of Sciences,Arlington,Virginia,United States,2011,2011-10-17,2011-10-18,2,38.8769326,-77.0893094,JSMF funded Workshop on 'Artists Envision S&T' Workshop,"Katy Borner, JD Talasek, Director of Cultural Programs of the National Academy of Sciences",63,2010 to 2014,38.87560932,-77.09326177,2011-01-01 00:00:00
IN CTSI Symposium_2011,IN CTSI Symposium,Indianapolis,Indiana,United States,2011,2011-11-02,2011-11-03,2,39.7683331,-86.1583502,Disease and Therapeutic Response Modeling,Dr. Robert Bies,,2010 to 2014,39.78193395,-86.15599286,2011-01-01 00:00:00
University of Pittsburgh_2011,University of Pittsburgh,Pittsburgh,Pennsylvania,United States,2011,2011-11-09,2011-11-10,2,40.4416941,-79.9900861,Envisioning Science and Technology talk,,,2010 to 2014,40.44482244,-79.98067598,2011-01-01 00:00:00
"Indiana University's GIS Day, Wells Library Atrium_2011","Indiana University's GIS Day, Wells Library Atrium",Bloomington,Indiana,United States,2011,2011-11-16,2011-11-16,1,39.1670396,-86.5342881,Katy presents Keynote on 'Mapping Science and Technology Activity in Geospatial and Topical Spaces',Anna Radue,,2010 to 2014,39.16275381,-86.527561,2011-01-01 00:00:00
"CNS, Indiana University_2011","CNS, Indiana University",Bloomington,Indiana,United States,2011,2011-11-17,2011-11-18,2,39.1670396,-86.5342881,JSMF funded Workshop on 'Anyone Can Map: Charting and Exploring the History and Future of Science and Technology',,,2010 to 2014,39.16168514,-86.52632217,2011-01-01 00:00:00
Carnegie Institution for Science_2011,Carnegie Institution for Science,"Washington, DC",,United States,2011,2011-12-02,2011-12-02,1,38.8950368,-77.0365427,Dupont Summit,,,2010 to 2014,38.89744916,-77.03909878,2011-01-01 00:00:00
Meertens Institute_2012,Meertens Institute,Amsterdam,,Netherlands,2012,2012-01-19,2012-01-19,1,52.3730796,4.8924534,Workshop on Visualization for the Digital Humanities,Andrea Scharnhorst,15,2010 to 2014,52.37196229,4.887505376,2012-01-01 00:00:00
Northeastern University_2012,Northeastern University,Boston,Massachusetts,United States,2012,2012-02-01,2012-03-30,59,42.3554334,-71.060511,Northeastern University,"Thomas Urell, William Wakeling",,2010 to 2014,42.3590034,-71.06113993,2012-01-01 00:00:00
EMBL_2012,EMBL,Heidelberg,,Germany,2012,2012-03-06,2012-03-08,3,49.4093582,8.694724,Keynote at Conference Series Visualizing Biological Data (VizBi),"Sean O'Donoghue, Anja Maria Kroeffges",,2010 to 2014,49.41172439,8.695002625,2012-01-01 00:00:00
Organisation for Economic Co-operation and Development (OECD) Global Science Forum_2012,Organisation for Economic Co-operation and Development (OECD) Global Science Forum,Paris,,France,2012,2012-04-11,2012-04-13,3,48.8534951,2.3483915,Science and Technological Policy (CSTP),Fernando Galindo-Rueda,,2010 to 2014,48.85313096,2.353862458,2012-01-01 00:00:00
US National Institute of Standards and Technology (NIST)_2012,US National Institute of Standards and Technology (NIST),Gaithersburg,Maryland,United States,2012,2012-04-12,2012-04-13,2,39.1399187,-77.1929215,Ontology Summit 2012 Symposium,Deborah MacPherson,6,2010 to 2014,39.13568473,-77.20138382,2012-01-01 00:00:00
Keynote at Second International Conference on Learning Analytics & Knowledge (LAK)_2012,Keynote at Second International Conference on Learning Analytics & Knowledge (LAK),Vancouver,,Canada,2012,2012-04-16,2012-04-29,14,49.2608724,-123.113952,Keynote at Second International Conference on Learning Analytics & Knowledge (LAK),Simon Buckingham Shum,,2010 to 2014,49.25329816,-123.1063042,2012-01-01 00:00:00
WTEC workshop_2012,WTEC workshop,"Washington, DC",,United States,2012,2012-06-25,2012-06-26,2,38.8950368,-77.0365427,Transforming Tools of Emerging and Converging Technologies for Societal Benefit,Chin Hua Kong,2,2010 to 2014,38.89280423,-77.03733274,2012-01-01 00:00:00
Smithsonian Folklife Festival_2012,Smithsonian Folklife Festival,"Washington, DC",,United States,2012,2012-06-27,2012-07-08,12,38.8950368,-77.0365427,Illuminated Diagram Display,"Chin Hua Kong, Michael J. Stamper",5,2010 to 2014,38.89931879,-77.03867711,2012-01-01 00:00:00
University of Pittsburgh_2012,University of Pittsburgh,Pittsburgh,Pennsylvania,United States,2012,2012-07-20,2012-07-22,3,40.4416941,-79.9900861,Keynote Speaker at International Society of the Psychology of Science and Technology (ISPST),Katy Borner,63,2010 to 2014,40.44276457,-79.99514662,2012-01-01 00:00:00
National Institutes of Health_2012,National Institutes of Health,"Washington, DC",,United States,2012,2012-07-23,2012-07-24,2,38.8950368,-77.0365427,Plenary Talk and Sci2 Tutorial,Katy Borner,63,2010 to 2014,38.88880811,-77.04481698,2012-01-01 00:00:00
STI Conference Series_2012,STI Conference Series,Montreal,Quebec,Canada,2012,2012-09-05,2012-09-08,4,45.5031824,-73.5698065,STI Conference Series,Vincent Lariviere,,2010 to 2014,45.5040483,-73.56569065,2012-01-01 00:00:00
Indiana University_2012,Indiana University,Bloomington,Indiana,United States,2012,2012-09-24,2012-09-25,2,39.1670396,-86.5342881,Plug-and-Play Macroscope Workshop | Statewide IT Conference,"Chin Hua Kong, Katy Borner",65,2010 to 2014,39.16896619,-86.53392151,2012-01-01 00:00:00
Chalmers Annual Library Seminar_2012,Chalmers Annual Library Seminar,Gothenburg,,Sweden,2012,2012-09-26,2012-09-26,1,57.7072326,11.9670171,Chalmers Annual Library Seminar,Stina Johansson,1,2010 to 2014,57.70281331,11.9605673,2012-01-01 00:00:00
Keck Center Gallery_2012,Keck Center Gallery,"Washington, DC",,United States,2012,2012-09-30,2012-12-15,77,38.8950368,-77.0365427,National Academy of Sciences,J.D. Talasek,2,2010 to 2014,38.89580543,-77.04301809,2012-01-01 00:00:00
Mundaneum Museum_2012,Mundaneum Museum,Mons,,Belgium,2012,2012-10-09,2013-06-01,236,50.4549568,3.951958,Mundaneum Museum,Vincent Delvaux,,2010 to 2014,50.45524784,3.950279077,2012-01-01 00:00:00
2012 NACIS Conference_2012,2012 NACIS Conference,Portland,Oregon,United States,2012,2012-10-17,2012-10-19,3,45.5202471,-122.674194,Exhibit Display and Keynote Talk,Neil Allen,,2010 to 2014,45.51453225,-122.6658489,2012-01-01 00:00:00
Yale University_2012,Yale University,New Haven,Connecticut,United States,2012,2012-10-26,2012-10-26,1,41.3082138,-72.9250518,Big Data Analysis in Science Symposium,,,2010 to 2014,41.31000274,-72.92634976,2012-01-01 00:00:00
CTSI Symposium on Disease and Therapeutic Response Modeling_2012,CTSI Symposium on Disease and Therapeutic Response Modeling,Indianapolis,Indiana,United States,2012,2012-11-13,2012-11-14,2,39.7683331,-86.1583502,CTSI Symposium on Disease and Therapeutic Response Modeling,Robert Bies,,2010 to 2014,39.77113702,-86.16586591,2012-01-01 00:00:00
Annual History of Science Conference_2012,Annual History of Science Conference,San Diego,California,United States,2012,2012-11-15,2012-11-18,4,32.7174202,-117.162772,Annual History of Science Conference,Andre Skupin,2,2010 to 2014,32.72283546,-117.1640007,2012-01-01 00:00:00
"Herman B Wells Library, Indiana University_2012","Herman B Wells Library, Indiana University",Bloomington,Indiana,United States,2012,2012-11-26,2012-11-30,5,39.1670396,-86.5342881,IQ-Wall,Tassie Gniady,,2010 to 2014,39.17230861,-86.53565172,2012-01-01 00:00:00
"Moorhead, Art & Design Building_2012","Moorhead, Art & Design Building",Moorhead,Minnesota,United States,2012,2012-11-28,2012-11-28,1,46.8739081,-96.7538674,Minnesota State University,Michael J. Stamper,3,2010 to 2014,46.86701975,-96.76735183,2012-01-01 00:00:00
Innovation Policy Research Center at The University of Tokyo_2012,Innovation Policy Research Center at The University of Tokyo,Tokyo,,Japan,2012,2012-12-12,2012-12-14,3,35.6768601,139.7638947,International Symposium on Science of Science and Innovation Policy,Yuya Kajikawa,,2010 to 2014,35.67217097,139.7636232,2012-01-01 00:00:00
Upstairs Gallery_2013,Upstairs Gallery,"Washington, DC",,United States,2013,2013-01-01,2013-06-01,152,38.8950368,-77.0365427,National Academy of Sciences,J.D. Talasek,2,2010 to 2014,38.89761198,-77.03769737,2013-01-01 00:00:00
KNAW_2013,KNAW,Amsterdam,,Netherlands,2013,2013-01-16,2013-01-22,7,52.3730796,4.8924534,VIVO Workshop,,,2010 to 2014,52.37564853,4.895934432,2013-01-01 00:00:00
Wonderlab_2013,Wonderlab,Bloomington,Indiana,United States,2013,2013-01-21,2013-01-21,1,39.1670396,-86.5342881,Real Life Science: Martin Luther King Jr. Day Celebration,Todd Theriault,6,2010 to 2014,39.16961484,-86.52504332,2013-01-01 00:00:00
World Economic Forum Annual Meeting_2013,World Economic Forum Annual Meeting,Davos,,Switzerland,2013,2013-01-23,2013-01-27,5,46.796198,9.8236892,World Economic Forum Annual Meeting,Akshay Mohan,,2010 to 2014,46.81546166,9.829322025,2013-01-01 00:00:00
Sunbelt_2013,Sunbelt,Hamburg,,Germany,2013,2013-03-02,2013-03-04,3,53.550341,10.000654,Sci2/NWB Workshop,Ann McCranie,1,2010 to 2014,53.55319545,9.999309557,2013-01-01 00:00:00
Buskirk-Chumley_2013,Buskirk-Chumley,Bloomington,Indiana,United States,2013,2013-03-22,2013-03-22,1,39.1670396,-86.5342881,TEDxBloomington,Katy Borner,63,2010 to 2014,39.17271743,-86.53982073,2013-01-01 00:00:00
Indiana University_2013,Indiana University,Bloomington,Indiana,United States,2013,2013-03-25,2013-03-26,2,39.1670396,-86.5342881,CNS Open House | Exploiting Big Data Semantics for Translational Medicine Workshop | Makevention | Plug-and-Play Macroscopes Workshop | Polnet Conference | School of Informatics and Computing (SOIC) Launch Ceremony | Science Mapping Standards Workshop,Todd Theriault,6,2010 to 2014,39.17180961,-86.5214213,2013-01-01 00:00:00
1st International Conference on Internet Science_2013,1st International Conference on Internet Science,Brussels,,Belgium,2013,2013-04-10,2013-04-11,2,50.8465573,4.351697,1st International Conference on Internet Science,Andrea Scharnhorst,15,2010 to 2014,50.84981426,4.351993092,2013-01-01 00:00:00
ACRL_2013,ACRL,Indianapolis,Indiana,United States,2013,2013-04-10,2013-04-13,4,39.7683331,-86.1583502,ACRL,Ted Polley,,2010 to 2014,39.76675675,-86.15828055,2013-01-01 00:00:00
Universite de Lille_2013,Universite de Lille,Lille,,France,2013,2013-04-12,2013-04-12,1,50.6365654,3.0635282,Seminaire Europeen de L'Ecole Doctorale,Andrea Scharnhorst,15,2010 to 2014,50.64036025,3.063407575,2013-01-01 00:00:00
National Academy of Sciences_2013,National Academy of Sciences,"Washington, DC",,United States,2013,2013-04-25,2013-04-26,2,38.8950368,-77.0365427,Sci2 Tutorial and DASER Talk,Katy Borner,63,2010 to 2014,38.89117267,-77.03555228,2013-01-01 00:00:00
Institute for Advanced Studies IMT (Institutions-Markets-Technologies)_2013,Institute for Advanced Studies IMT (Institutions-Markets-Technologies),Lucca,,Italy,2013,2013-06-09,2013-06-14,6,44.0177639,10.45443003,Institute for Advanced Studies IMT (Institutions-Markets-Technologies),"Andrea Scharnhorst, Alexander Petersen",15,2010 to 2014,44.01657981,10.45370823,2013-01-01 00:00:00
Northwestern University_2013,Northwestern University,Evanston,Illinois,United States,2013,2013-06-24,2013-06-27,4,42.0470043,-87.6846053,4th Annual International Science of Team Science Conference,,,2010 to 2014,42.04457748,-87.68747361,2013-01-01 00:00:00
Homo Communicativus: Contemporary Faces of Communication and Information_2013,Homo Communicativus: Contemporary Faces of Communication and Information,Torun,,Poland,2013,2013-06-24,2013-06-25,2,53.0145361,18.59658314,Homo Communicativus: Contemporary Faces of Communication and Information,Veslava Osinska,4,2010 to 2014,53.01494547,18.59384885,2013-01-01 00:00:00
Pontificia Universidad Católica de Chile_2013,Pontificia Universidad Catolica de Chile,Santiago,,Chile,2013,2013-08-11,2013-08-13,3,-33.4377756,-70.6504502,Collaborative Innovation Networks Conference,Cristobal Garcia,,2010 to 2014,-33.42620231,-70.65061397,2013-01-01 00:00:00
American Chemical Society Meeting_2013,American Chemical Society Meeting,Indianapolis,Indiana,United States,2013,2013-09-10,2013-09-10,1,39.7683331,-86.1583502,American Chemical Society Meeting,Tony Williams,,2010 to 2014,39.75899677,-86.16106732,2013-01-01 00:00:00
"Cyberinfrastructure Building, Indiana University_2013","Cyberinfrastructure Building, Indiana University",Bloomington,Indiana,United States,2013,2013-09-16,2013-09-20,5,39.1670396,-86.5342881,WorldProcessor Globe Exhibit,Ingo Gunther,,2010 to 2014,39.1704709,-86.53785233,2013-01-01 00:00:00
Open Knowledge Conference (OKCON)_2013,Open Knowledge Conference (OKCON),Geneva,,Switzerland,2013,2013-09-19,2013-09-19,1,46.2017559,6.1466014,"How to Become a Data Explorer, KnowEscape Workshop and a Satellite Event",Andrea Scharnhorst,15,2010 to 2014,46.19369232,6.147133551,2013-01-01 00:00:00
IEEE Cluster 2013_2013,IEEE Cluster 2013,Indianapolis,Indiana,United States,2013,2013-09-24,2013-09-24,1,39.7683331,-86.1583502,IEEE Cluster 2013,Todd Theriault,6,2010 to 2014,39.76597344,-86.15962509,2013-01-01 00:00:00
World Social Science Forum (WSSF 2013)_2013,World Social Science Forum (WSSF 2013),Montreal,Quebec,Canada,2013,2013-10-13,2013-10-15,3,45.5031824,-73.5698065,World Social Science Forum (WSSF 2013),,,2010 to 2014,45.50862715,-73.56228654,2013-01-01 00:00:00
"Hunt Library, North Carolina State University_2013","Hunt Library, North Carolina State University",Raleigh,North Carolina,United States,2013,2013-10-14,2013-10-27,14,35.7803977,-78.6390989,The Immersion Theater,Hilary Davis,,2010 to 2014,35.7807191,-78.65235375,2013-01-01 00:00:00
SciELO 15 Years Conference_2013,SciELO 15 Years Conference,Sao Paulo,,Brazil,2013,2013-10-22,2013-10-25,4,-23.5506507,-46.6333824,Scientometrics - Measurement of Research and Journal Quality,Adriana Luccisano,,2010 to 2014,-23.55603942,-46.62792487,2013-01-01 00:00:00
The Hague Royal Library_2013,The Hague Royal Library,The Hague,,Netherlands,2013,2013-10-23,2013-10-23,1,52.0799838,4.3113461,"Knowledge Orders and Science, A joined working group meeting of KNOWeSCAPE",Andrea Scharnhorst,15,2010 to 2014,52.07640728,4.317576526,2013-01-01 00:00:00
"WESit, Indiana University_2013","WESit, Indiana University",Bloomington,Indiana,United States,2013,2013-10-25,2013-10-25,1,39.1670396,-86.5342881,Tech It Out Scavenger Hunt,,,2010 to 2014,39.17043759,-86.54465505,2013-01-01 00:00:00
METRICS2013/ASIST Workshop on Informetric and Scientometric Research_2013,METRICS2013/ASIST Workshop on Informetric and Scientometric Research,Montreal,,Canada,2013,2013-11-02,2013-11-02,1,45.5031824,-73.5698065,METRICS2013/ASIST Workshop on Informetric and Scientometric Research,Cassidy R. Sugimoto,,2010 to 2014,45.49953057,-73.57151994,2013-01-01 00:00:00
Brandeis University_2013,Brandeis University,Waltham,Massachusetts,United States,2013,2013-11-18,2013-12-02,15,42.3756401,-71.2358004,Digital Display,,,2010 to 2014,42.37672239,-71.2376576,2013-01-01 00:00:00
National Science Foundation_2013,National Science Foundation,Ballston,Virginia,United States,2013,2013-11-18,2013-11-19,2,38.8820057,-77.1115141,"GeoVoCamp, Networking and Information Technology Research and Development Program",Deborah MacPherson,6,2010 to 2014,38.88223356,-77.11855166,2013-01-01 00:00:00
Aalto University_2013,Aalto University,Espoo,,Finland,2013,2013-11-18,2013-11-20,3,60.2049651,24.6559808,KnowEscape 2013,Andrea Scharnhorst,15,2010 to 2014,60.2017071,24.65209172,2013-01-01 00:00:00
GIS Day_2013,GIS Day,Bloomington,Indiana,United States,2013,2013-11-20,2013-11-20,1,39.1670396,-86.5342881,GIS Day,,,2010 to 2014,39.17775932,-86.53984098,2013-01-01 00:00:00
Delft University of Technology Library_2013,Delft University of Technology Library,Delft,,Netherlands,2013,2013-12-02,2013-12-13,12,52.0114017,4.35839,Mediating Justice conference,"Andrea Scharnhorst, Caroline Nevejan",16,2010 to 2014,52.0145713,4.367151352,2013-01-01 00:00:00
Science Café_2013,Science Cafe,Bloomington,Indiana,United States,2013,2013-12-03,2013-12-03,1,39.1670396,-86.5342881,Science Cafe,,,2010 to 2014,39.15691389,-86.52960971,2013-01-01 00:00:00
Dutch funding agency NWO_2013,Dutch funding agency NWO,Amsterdam,,Netherlands,2013,2013-12-13,2013-12-13,1,52.3730796,4.8924534,CATCH meeting FACT (Folktales as Classifiable Texts): Patterns in Narrative Texts,,,2010 to 2014,52.37401187,4.898811175,2013-01-01 00:00:00
AAAS Annual Meeting_2014,AAAS Annual Meeting,Chicago,Illinois,United States,2014,2014-02-13,2014-02-17,5,41.8755616,-87.6244212,Screening of the film Humanexus,,,2010 to 2014,41.87225267,-87.62081284,2014-01-01 00:00:00
Harvard University_2014,Harvard University,Cambridge,Massachusetts,United States,2014,2014-02-27,2014-02-28,2,42.3656347,-71.1040018,Thinking With Your Eyes: Visualizing the Arts Humanities & Sciences,,,2010 to 2014,42.36989687,-71.10964706,2014-01-01 00:00:00
Institut des Systemes Complexes_2014,Institut des Systemes Complexes,Paris,,France,2014,2014-03-06,2014-03-06,1,48.8534951,2.3483915,Institut des Systemes Complexes,,,2010 to 2014,48.8495325,2.345768899,2014-01-01 00:00:00
"Science Centre World Summit, Technopolis_2014","Science Centre World Summit, Technopolis",Mechelen,,Belgium,2014,2014-03-17,2014-03-19,3,51.0281381,4.4803453,New Technologies for Learning and Engagement,,,2010 to 2014,51.02756442,4.482792173,2014-01-01 00:00:00
DG Research and Innovation_2014,DG Research and Innovation,Brussels,,Belgium,2014,2014-03-19,2014-12-31,288,50.8465573,4.351697,European Commission,,,2010 to 2014,50.84908224,4.345586361,2014-01-01 00:00:00
Royal Netherlands Academy of Arts and Sciences_2014,Royal Netherlands Academy of Arts and Sciences,,,Netherlands,2014,2014-03-27,2014-03-27,1,52.2434979,5.6343227,New Trends in eHumanities Research meeting,,,2010 to 2014,52.24782668,5.637887692,2014-01-01 00:00:00
Weizmann Institute of Science_2014,Weizmann Institute of Science,Rehovat,,Israel,2014,2014-04-01,2014-04-01,1,30.8124247,34.8594762,Digital Display,,,2010 to 2014,30.80642322,34.85827457,2014-01-01 00:00:00
Lorentz Workshop_2014,Lorentz Workshop,Leiden,,Netherlands,2014,2014-04-07,2014-04-11,5,52.1594747,4.4908843,Simulating the Social Processes of Science,Andrea Scharnhorst,15,2010 to 2014,52.15780219,4.489010196,2014-01-01 00:00:00
Linking International Databases to Build Strategic Academic Partnerships in Science_2014,Linking International Databases to Build Strategic Academic Partnerships in Science,"Washington, DC",,United States,2014,2014-05-14,2014-05-15,2,38.8950368,-77.0365427,Linking International Databases to Build Strategic Academic Partnerships in Science,,,2010 to 2014,38.89266207,-77.0329879,2014-01-01 00:00:00
Festival de Cannes_2014,Festival de Cannes,Cannes,,France,2014,2014-05-19,2014-05-23,5,43.5515198,7.0134418,Humanexus film screening,,,2010 to 2014,43.54825315,7.015663117,2014-01-01 00:00:00
College of Social and Media Culture_2014,College of Social and Media Culture,Torun,,Poland,2014,2014-05-21,2014-05-21,1,53.0145361,18.59658314,Visualization in Computer Science workshop,,,2010 to 2014,53.02336337,18.59477831,2014-01-01 00:00:00
"Science Live Theater, Science Museum of Minnesota_2014","Science Live Theater, Science Museum of Minnesota",St. Paul,Minnesota,United States,2014,2014-06-01,2014-12-31,214,44.9497487,-93.0931028,Jax and the Big Data Beanstalk,Stephanie Long,,2010 to 2014,44.95177361,-93.08730615,2014-01-01 00:00:00
NetSci 2014: International School and Conference on Network Science_2014,NetSci 2014: International School and Conference on Network Science,Berkeley,California,United States,2014,2014-06-02,2014-06-06,5,37.8708393,-122.272863,NetSci 2014: International School and Conference on Network Science,,,2010 to 2014,37.86453488,-122.2782683,2014-01-01 00:00:00
OCLC Research and DANS_2014,OCLC Research and DANS,Amsterdam,,Netherlands,2014,2014-06-10,2014-06-10,1,52.3730796,4.8924534,Evolving Scholarly Record and Evolving Stewardship Ecosystem,Andrea Scharnhorst,15,2010 to 2014,52.37766891,4.895533078,2014-01-01 00:00:00
Libraries and Research: Supporting Change/Changing Support_2014,Libraries and Research: Supporting Change/Changing Support,Amsterdam,,Netherlands,2014,2014-06-11,2014-06-12,2,52.3730796,4.8924534,Libraries and Research: Supporting Change/Changing Support,Andrea Scharnhorst,15,2010 to 2014,52.38369038,4.895418906,2014-01-01 00:00:00
Le Centre de Recherches Interdisciplinaires_2014,Le Centre de Recherches Interdisciplinaires,Paris,,France,2014,2014-06-19,2014-06-19,1,48.8534951,2.3483915,Humanexus showing at NightScience,,,2010 to 2014,48.85865743,2.346843768,2014-01-01 00:00:00
European Student Parliaments_2014,European Student Parliaments,Copenhagen,,Denmark,2014,2014-06-21,2014-06-21,1,55.6867243,12.5700724,European Student Parliaments,,,2010 to 2014,55.67912745,12.57170307,2014-01-01 00:00:00
Euroscience Open Forum_2014,Euroscience Open Forum,Copenhagen,,Denmark,2014,2014-06-22,2014-06-24,3,55.6867243,12.5700724,Euroscience Open Forum,,,2010 to 2014,55.68430313,12.56381683,2014-01-01 00:00:00
ACM Web Science Conference_2014,ACM Web Science Conference,Bloomington,Indiana,United States,2014,2014-06-23,2014-06-26,4,39.1670396,-86.5342881,ACM Web Science Conference,,,2010 to 2014,39.17337416,-86.52966796,2014-01-01 00:00:00
Euroscience Open Forum workshop_2014,Euroscience Open Forum workshop,Copenhagen,,Denmark,2014,2014-06-23,2014-06-23,1,55.6867243,12.5700724,Mapping Social Science and Humanities,,,2010 to 2014,55.68318595,12.56914789,2014-01-01 00:00:00
UQAM Cognitive Science Institute_2014,UQAM Cognitive Science Institute,Montreal,,Canada,2014,2014-07-07,2014-07-18,12,45.5031824,-73.5698065,Web Science and the Mind,,,2010 to 2014,45.5054015,-73.57242012,2014-01-01 00:00:00
UNESCO Institute for Statistics_2014,UNESCO Institute for Statistics,Montreal,,Canada,2014,2014-07-18,2014-12-31,167,45.5031824,-73.5698065,UNESCO Institute for Statistics,Martin Schaaper,,2010 to 2014,45.50705557,-73.56456145,2014-01-01 00:00:00
VIVO Conference_2014,VIVO Conference,Austin,Texas,United States,2014,2014-08-06,2014-08-08,3,30.2711286,-97.7436995,VIVO Conference,,,2010 to 2014,30.26649395,-97.74722122,2014-01-01 00:00:00
University of Miami_2014,University of Miami,Coral Gables,Florida,United States,2014,2014-09-04,2014-12-11,99,25.7331105,-80.2585107,University of Miami,,,2010 to 2014,25.73281287,-80.26555301,2014-01-01 00:00:00
IU Cinema_2014,IU Cinema,Bloomington,Indiana,United States,2014,2014-09-08,2014-09-08,1,39.1670396,-86.5342881,Humanexus screening,Katy Borner,63,2010 to 2014,39.15083326,-86.54207125,2014-01-01 00:00:00
Joint Conference on Digital Libraries 2014_2014,Joint Conference on Digital Libraries 2014,London,,United Kingdom,2014,2014-09-08,2014-09-12,5,51.5074456,-0.1277653,Joint Conference on Digital Libraries 2014,,,2010 to 2014,51.50232366,-0.12473525,2014-01-01 00:00:00
Workshop_2014,Workshop,Lucca,,Italy,2014,2014-09-29,2014-10-04,6,44.0177639,10.45443003,Workshop,Andrea Scharnhorst,15,2010 to 2014,44.01650106,10.44802788,2014-01-01 00:00:00
"Woodburn Hall, Indiana University_2014","Woodburn Hall, Indiana University",Bloomington,Indiana,United States,2014,2014-10-01,2014-12-31,92,39.1670396,-86.5342881,Social Science Research Commons,,,2010 to 2014,39.16080068,-86.52551413,2014-01-01 00:00:00
Arizona State University_2014,Arizona State University,Tucson,Arizona,United States,2014,2014-10-05,2014-12-08,65,32.2228765,-110.974847,Arizona State University,Stephen Kobourov,,2010 to 2014,32.23103856,-110.9852566,2014-01-01 00:00:00
Indiana University_2014,Indiana University,Bloomington,Indiana,United States,2014,2014-10-10,2014-12-31,83,39.1670396,-86.5342881,CEWit Faculty & PhD Salon | CNS Open House | Swain Hall Library,Bob Noel | Jenny Hartel | Katy Borner,64,2010 to 2014,39.15988889,-86.52580582,2014-01-01 00:00:00
New School_2014,New School,New York,New York,United States,2014,2014-10-17,2014-10-24,8,40.7127281,-74.0060152,Imagine Science Film Festival,Nate Dorr,,2010 to 2014,40.71052788,-74.00496011,2014-01-01 00:00:00
Internet 2 2014 Technology Exchange_2014,Internet 2 2014 Technology Exchange,Indianapolis,Indiana,United States,2014,2014-10-26,2014-10-30,5,39.7683331,-86.1583502,Internet 2 2014 Technology Exchange,,,2010 to 2014,39.7689868,-86.15883377,2014-01-01 00:00:00
Ken Kennedy Institute for Information Technology_2014,Ken Kennedy Institute for Information Technology,Houston,Texas,United States,2014,2014-10-27,2014-11-28,33,29.7589382,-95.3676974,Rice University,,,2010 to 2014,29.76614457,-95.370422,2014-01-01 00:00:00
"CNS, Indiana University_2014","CNS, Indiana University",Bloomington,Indiana,United States,2014,2014-11-03,2014-11-04,2,39.1670396,-86.5342881,Plug-and-Play Macroscopes Workshop,,,2010 to 2014,39.15986029,-86.53229242,2014-01-01 00:00:00
"International Conference for High Performance Computing, Networking, Storage, and Analysis (IVL Booth)_2014","International Conference for High Performance Computing, Networking, Storage, and Analysis (IVL Booth)",New Orleans,Louisiana,United States,2014,2014-11-16,2014-11-21,6,29.9759983,-90.0782127,"International Conference for High Performance Computing, Networking, Storage, and Analysis (IVL Booth)",Michael Boyles,,2010 to 2014,29.98181412,-90.07840087,2014-01-01 00:00:00
"International Conference for High Performance Computing, Networking, Storage, and Analysis (SoIC Booth)_2014","International Conference for High Performance Computing, Networking, Storage, and Analysis (SoIC Booth)",New Orleans,Louisiana,United States,2014,2014-11-16,2014-11-21,6,29.9759983,-90.0782127,"International Conference for High Performance Computing, Networking, Storage, and Analysis (SoIC Booth)",Andrew Lumsdaine,,2010 to 2014,29.97604947,-90.07269619,2014-01-01 00:00:00
5th International Symposium on Information Management in a Changing World and the 10th Iternational Conference on Knowledge Management_2014,5th International Symposium on Information Management in a Changing World and the 10th Iternational Conference on Knowledge Management,Antalya,,Turkey,2014,2014-11-24,2014-11-26,3,36.8865728,30.7030242,5th International Symposium on Information Management in a Changing World and the 10th Iternational Conference on Knowledge Management,Yasar Tonta,,2010 to 2014,36.88166526,30.70359534,2014-01-01 00:00:00
International Science and Creativity Conference_2014,International Science and Creativity Conference,Seoul,,South Korea,2014,2014-12-03,2014-12-07,5,37.5666791,126.9782914,International Science and Creativity Conference,Jung Soon Lee,,2010 to 2014,37.56898962,126.9790429,2014-01-01 00:00:00
Barbican_2014,Barbican,London,,United Kingdom,2014,2014-12-05,2014-12-07,3,51.5074456,-0.1277653,The Logan Symposium for Journalists and Hacktivists,Caroline Nevejan,1,2010 to 2014,51.5084409,-0.129583361,2014-01-01 00:00:00
Georgia Tech_2014,Georgia Tech,Atlanta,Georgia,United States,2014,2014-12-12,2015-02-28,79,33.7489924,-84.3902644,Georgia Tech,Alan Porter,,2010 to 2014,33.74599132,-84.39054913,2014-01-01 00:00:00
Duke University_2015,Duke University,Durham,North Carolina,United States,2015,2015-01-12,2015-04-15,94,35.996653,-78.9018053,Full Exhibit,Angela Zoss,3,2015 to 2019,35.99700201,-78.90026629,2015-01-01 00:00:00
AAAS Annual Meeting_2015,AAAS Annual Meeting,San Jose,California,United States,2015,2015-02-12,2015-02-16,5,37.3361663,-121.890591,"Visual Insights from Big Data: Envisioning Science, Engineering, and Innovation",Katy Borner,63,2015 to 2019,37.33423973,-121.8991418,2015-01-01 00:00:00
Fields Institute_2015,Fields Institute,Toronto,,Canada,2015,2015-02-23,2015-02-27,5,43.6534817,-79.3839347,Information Visualization and Big Data Workshop,Nancy Reid,,2015 to 2019,43.65404929,-79.39067563,2015-01-01 00:00:00
University of Missouri_2015,University of Missouri,Columbia,Missouri,United States,2015,2015-03-03,2015-03-03,1,38.951883,-92.3337366,Cyberinfrastructure Day,Tim Middlekoop,,2015 to 2019,38.95519365,-92.33002028,2015-01-01 00:00:00
New York Hall of Science_2015,New York Hall of Science,New York,New York,United States,2015,2015-03-28,2015-03-28,1,40.7127281,-74.0060152,New York City Data Fest,Steve Uzzo,,2015 to 2019,40.72065818,-74.00516087,2015-01-01 00:00:00
University of Maryland_2015,University of Maryland,"Washington, DC",,United States,2015,2015-04-03,2015-04-03,1,38.8950368,-77.0365427,Campus Visualization Partnership Lecture Series,,,2015 to 2019,38.88884772,-77.03746262,2015-01-01 00:00:00
University of Newcastle_2015,University of Newcastle,Newcastle,,Australia,2015,2015-04-13,2015-05-11,29,-32.9192953,151.7795348,Digital Display,Keith Nesbitt,,2015 to 2019,-32.90863013,151.779627,2015-01-01 00:00:00
International Science Festival_2015,International Science Festival,Gothenburg,,Sweden,2015,2015-04-15,2015-04-19,5,57.7072326,11.9670171,International Science Festival 2015,Stina Johansson,1,2015 to 2019,57.69747216,11.96875501,2015-01-01 00:00:00
"Galter Health Sciences Library, Northwestern University_2015","Galter Health Sciences Library, Northwestern University",Chicago,Illinois,United States,2015,2015-05-01,2015-10-30,183,41.8755616,-87.6244212,Full Exhibit,Kristi Holmes,,2015 to 2019,41.87480267,-87.62712,2015-01-01 00:00:00
EA Annual Conference_2015,EA Annual Conference,Bonn,,Germany,2015,2015-05-11,2015-05-12,2,50.7352621,7.1024635,EA Annual Conference,Petra Ahrwheiler,,2015 to 2019,50.73820369,7.098571976,2015-01-01 00:00:00
EA European Academy of Technology and Innovation Assessment_2015,EA European Academy of Technology and Innovation Assessment,Bad Neuenahr,,Germany,2015,2015-05-11,2015-12-21,225,50.5448624,7.1377303,Maps from the 4th and 5th Iterations,Margret Heyen,,2015 to 2019,50.54626736,7.138709526,2015-01-01 00:00:00
"Kellog School of Management, Northwestern University_2015","Kellog School of Management, Northwestern University",Chicago,Illinois,United States,2015,2015-05-15,2015-05-17,3,41.8755616,-87.6244212,Computational Social Science Conference,Brian Uzzi,,2015 to 2019,41.8724481,-87.62931306,2015-01-01 00:00:00
The Levy Library_2015,The Levy Library,New York,New York,United States,2015,2015-05-20,2016-12-31,592,40.7127281,-74.0060152,A Selection of Maps,Gali Halevi,2,2015 to 2019,40.71168749,-74.00397394,2015-01-01 00:00:00
DANS_2015,DANS,The Hague,,Netherlands,2015,2015-05-27,2015-05-27,1,52.0799838,4.3113461,Royal Netherlands Academy of Arts and Sciences,Andrea Scharnhorst,15,2015 to 2019,52.0775188,4.302833182,2015-01-01 00:00:00
Bruer Symposium_2015,Bruer Symposium,St. Louis,Missouri,United States,2015,2015-05-28,2015-05-29,2,38.6280278,-90.1910154,Bruer Symposium,Susan M. Fitzpatrick,,2015 to 2019,38.62508098,-90.18586962,2015-01-01 00:00:00
"HASTAC 2015 Conference, Kellogg Center, Michigan State University_2015","HASTAC 2015 Conference, Kellogg Center, Michigan State University",Lansing,Michigan,United States,2015,2015-05-29,2015-05-29,1,42.7338254,-84.5546295,Humanexus Screening,Scott Weingart,,2015 to 2019,42.73807341,-84.55226651,2015-01-01 00:00:00
National Institutes of Health_2015,National Institutes of Health,Bethesda,Maryland,United States,2015,2015-06-02,2015-06-05,4,38.98127255,-77.12335871,NIH Science of Team Science (SciTS) Conference,Kara Hall,,2015 to 2019,38.98305763,-77.12207856,2015-01-01 00:00:00
Instituto Politicnico Nacional_2015,Instituto Politicnico Nacional,Mexico City,,Mexico,2015,2015-06-22,2015-07-22,31,19.3207722,-99.15146775,CeDiCyT,Dafna Alfaro,,2015 to 2019,19.31730765,-99.1465543,2015-01-01 00:00:00
Homo Communicativus_2015,Homo Communicativus,Torun,,Poland,2015,2015-06-25,2015-06-26,2,53.0145361,18.59658314,Homo Communicativus,Veslava Osinska,4,2015 to 2019,53.0190341,18.60491051,2015-01-01 00:00:00
"IndiEarth Animation Film Festival, Goethe-Institut Chennai_2015","IndiEarth Animation Film Festival, Goethe-Institut Chennai",Chennai,,India,2015,2015-06-26,2015-06-28,3,13.0836939,80.270186,Humanexus Screening,Ying-Fang Shen,,2015 to 2019,13.0852304,80.27525785,2015-01-01 00:00:00
15th International Conference of the International Society for Scientometrics and Informetrics_2015,15th International Conference of the International Society for Scientometrics and Informetrics,Istanbul,,Turkey,2015,2015-06-29,2015-07-04,6,41.006381,28.9758715,15th International Conference of the International Society for Scientometrics and Informetrics,Katy Borner,63,2015 to 2019,41.01044531,28.96666713,2015-01-01 00:00:00
Visitor Studies Association Annual Conference_2015,Visitor Studies Association Annual Conference,Indianapolis,Indiana,United States,2015,2015-07-14,2015-07-18,5,39.7683331,-86.1583502,Visitor Studies Association Annual Conference,Mary Ann Wojton,,2015 to 2019,39.77148124,-86.16474808,2015-01-01 00:00:00
System Dynamics Society conference_2015,System Dynamics Society conference,Cambridge,Massachusetts,United States,2015,2015-07-19,2015-07-23,5,42.3656347,-71.1040018,System Dynamics Society conference,Roberta Spencer,,2015 to 2019,42.36148972,-71.10712589,2015-01-01 00:00:00
XSEDE 15_2015,XSEDE 15,St. Louis,Missouri,United States,2015,2015-07-26,2015-07-30,5,38.6280278,-90.1910154,XSEDE 15,Richard Knepper,,2015 to 2019,38.62522689,-90.19088494,2015-01-01 00:00:00
"ILS Department, Indiana University_2015","ILS Department, Indiana University",Bloomington,Indiana,United States,2015,2015-08-21,2015-08-21,1,39.1670396,-86.5342881,ILS Research Showcase,Rhonda Spencer,,2015 to 2019,39.17077607,-86.5316998,2015-01-01 00:00:00
National Science Foundation_2015,National Science Foundation,Arlington,Virginia,United States,2015,2015-08-31,2015-09-01,2,38.8769326,-77.0893094,CyberBridges Workshop | NSE Grantees Conference and Kickoff Meeting,Keith Roper | Thomas Hacker,,2015 to 2019,38.87998445,-77.09293812,2015-01-01 00:00:00
"Center for Complex Systems & Enterprises Distinguished Lecture Series, Stevens Institute of Technology_2015","Center for Complex Systems & Enterprises Distinguished Lecture Series, Stevens Institute of Technology",Hoboken,New Jersey,United States,2015,2015-09-02,2015-09-02,1,40.7433066,-74.0323752,Data Visualizations: Drawing Actionable Insights from Science and Technology Data,John Casti,,2015 to 2019,40.74320209,-74.03144137,2015-01-01 00:00:00
University of Warsaw Library_2015,University of Warsaw Library,Warsaw,,Poland,2015,2015-09-18,2015-09-18,1,52.2337172,21.07143224,Visualization for Science,"Veslava Osinska, Agnieska Uzieblo, Beata Bereza",4,2015 to 2019,52.23430384,21.06765533,2015-01-01 00:00:00
"Conference on Complex Systems, Arizona State University_2015","Conference on Complex Systems, Arizona State University",Tempe,Arizona,United States,2015,2015-10-01,2015-10-01,1,33.4255117,-111.940016,Quantifying Science,Dashun Wang,,2015 to 2019,33.43190002,-111.9430736,2015-01-01 00:00:00
European Food Safety Authority_2015,European Food Safety Authority,Milan,,Italy,2015,2015-10-14,2015-10-16,3,45.4641943,9.1896346,2nd Scientific Conference,Mary Gilsenan,,2015 to 2019,45.46123644,9.182601295,2015-01-01 00:00:00
Association of Science and Technology Centers Annual Conference_2015,Association of Science and Technology Centers Annual Conference,Montreal,,Canada,2015,2015-10-17,2015-10-20,4,45.5031824,-73.5698065,Association of Science and Technology Centers Annual Conference,,,2015 to 2019,45.50591789,-73.57442267,2015-01-01 00:00:00
NOAA_2015,NOAA,Boulder,Colorado,United States,2015,2015-10-29,2015-10-30,2,40.0149856,-105.270545,CDAC Meeting,Ian Kalin,,2015 to 2019,40.01397464,-105.2773034,2015-01-01 00:00:00
"CNS, Indiana University_2015","CNS, Indiana University",Bloomington,Indiana,United States,2015,2015-11-02,2015-11-04,3,39.1670396,-86.5342881,CNS Open House | Visual Analytics in Healthcare Workshop,Katy Borner,63,2015 to 2019,39.16595119,-86.53916747,2015-01-01 00:00:00
NAKFI 2015 Conference_2015,NAKFI 2015 Conference,Irvine,California,United States,2015,2015-11-12,2015-11-14,3,33.6856969,-117.825981,"Art and Science, Engineering, and Medicine Frontier Collaborations: Ideation, Translation & Realization",J.D. Talasek,2,2015 to 2019,33.69119078,-117.8207128,2015-01-01 00:00:00
NIH_2015,NIH,Bethesda,Maryland,United States,2015,2015-11-12,2015-11-13,2,38.98127255,-77.12335871,BD2K Consortium All-Hands Meeting,David Miller,,2015 to 2019,38.98539963,-77.1281057,2015-01-01 00:00:00
Supercomputing Conference_2015,Supercomputing Conference,Austin,Texas,United States,2015,2015-11-15,2015-11-20,6,30.2711286,-97.7436995,SC15,Laura Diaz,,2015 to 2019,30.27519615,-97.73053759,2015-01-01 00:00:00
Universidad de los Andes_2015,Universidad de los Andes,Bogota,,Colombia,2015,2015-11-17,2015-11-21,5,4.6533816,-74.0836333,Universidad de los Andes,Andres Burbano,,2015 to 2019,4.659908994,-74.08116671,2015-01-01 00:00:00
European Union Publications Office_2015,European Union Publications Office,Luxembourg,,Luxembourg,2015,2015-12-11,2015-12-31,21,49.6112768,6.129799,European Union Publications Office,Yvo Volman,,2015 to 2019,49.61138182,6.130723181,2015-01-01 00:00:00
University of Duisberg-Essen_2015,University of Duisberg-Essen,Duisburg,,Germany,2015,2015-12-18,2015-12-31,14,51.434999,6.759562,Graduate School of User-Centered Social Media,Ulrich Hoppe,,2015 to 2019,51.43840876,6.755270211,2015-01-01 00:00:00
David J. Sencer CDC Museum_2016,David J. Sencer CDC Museum,Atlanta,Georgia,United States,2016,2016-01-25,2016-06-17,145,33.7489924,-84.3902644,Full Exhibit,Louise Shaw,,2015 to 2019,33.74744107,-84.38676285,2016-01-01 00:00:00
Emory College of Arts and Sciences Institute for Quantitative Theory and Methods_2016,Emory College of Arts and Sciences Institute for Quantitative Theory and Methods,Atlanta,Georgia,United States,2016,2016-02-04,2016-02-04,1,33.7489924,-84.3902644,Data Visualization Speaker Series,Debora Owens,,2015 to 2019,33.75061323,-84.39314259,2016-01-01 00:00:00
"National Heart, Lung, and Blood Institute_2016","National Heart, Lung, and Blood Institute",Bethesda,Maryland,United States,2016,2016-02-10,2016-02-25,16,38.98127255,-77.12335871,"National Heart, Lung, and Blood Institute","Zorina Galis, Gary Berg-Cross",,2015 to 2019,38.98062183,-77.12274866,2016-01-01 00:00:00
Universität Regensburg_2016,Universitat Regensburg,Regensburg,,Germany,2016,2016-03-06,2016-03-11,6,49.0195333,12.0974869,80th Annual Meeting of the DPG,"Jens Christian Claussen, Andrea Scharnhorst",15,2015 to 2019,49.02001828,12.11028732,2016-01-01 00:00:00
Universität Leipzig_2016,Universitat Leipzig,Leipzig,,Germany,2016,2016-03-15,2016-03-15,1,51.3406321,12.3747329,Library Congress,"Francis Harvey, Monika Borner",1,2015 to 2019,51.34360789,12.3742526,2016-01-01 00:00:00
"CNS Center, Indiana University_2016","CNS Center, Indiana University",Bloomington,Indiana,United States,2016,2016-03-21,2016-03-21,1,39.1670396,-86.5342881,"Point, Line & Data: New methods for understanding complex data, from storytelling to machine learning, Mauro Martino - CNS Talks | Quantifying, Visualizing, and Forecasting Global Human Society Through Big Data: What it Looks Like To Compute on the Entire Planet | Recontextualizing Form & Surface, Carrie Longley - CNS Talks",Lisel Record,6,2015 to 2019,39.1629485,-86.52854173,2016-01-01 00:00:00
Library of Congress_2016,Library of Congress,"Washington, DC",,United States,2016,2016-03-22,2016-03-23,2,38.8950368,-77.0365427,Science of Science Workshop,"Todd Theriault, Tom Evans",6,2015 to 2019,38.90549874,-77.04005858,2016-01-01 00:00:00
Indiana University_2016,Indiana University,Bloomington,Indiana,United States,2016,2016-04-01,2016-04-01,1,39.1670396,-86.5342881,"Galaxy Community Conference | Humanexus showing, Pathway Project - Earlham College Campus Visit | Mini University | Network Science Institute",Cassidy Sugimoto | Jim Pershing | Robert Ping | Valentin Pentchev,4,2015 to 2019,39.16200951,-86.53446304,2016-01-01 00:00:00
"Kelley School of Business, Indiana University_2016","Kelley School of Business, Indiana University",Bloomington,Indiana,United States,2016,2016-04-08,2016-04-09,2,39.1670396,-86.5342881,Law and Ethics Big Data Symposium,"Angie Raymond, Peter Hook",1,2015 to 2019,39.16096866,-86.5254341,2016-01-01 00:00:00
"Institute for Pure & Applied Mathematics, UCLA_2016","Institute for Pure & Applied Mathematics, UCLA",Los Angeles,California,United States,2016,2016-04-11,2016-04-15,5,34.0536909,-118.242766,Culture Analytics and User Experience Design,Tim Tangherlini,1,2015 to 2019,34.05948145,-118.2459008,2016-01-01 00:00:00
The Levy Library_2016,The Levy Library,New York,New York,United States,2016,2016-05-20,2016-12-31,226,40.7127281,-74.0060152,A Selection of Maps,Gali Halevi,2,2015 to 2019,40.71668641,-73.99695296,2016-01-01 00:00:00
Institute of Complex Systems_2016,Institute of Complex Systems,Paris,,France,2016,2016-06-16,2016-06-16,1,48.8534951,2.3483915,ISC-PIF Open House,David Chavalarias,,2015 to 2019,48.8566157,2.35193026,2016-01-01 00:00:00
"Consortium of the Study of Religion, Ethics, and Society_2016","Consortium of the Study of Religion, Ethics, and Society",Bloomington,Indiana,United States,2016,2016-06-20,2016-06-23,4,39.1670396,-86.5342881,Wonder and the Natural World Conference,Lisa Sideris,,2015 to 2019,39.17018133,-86.53710043,2016-01-01 00:00:00
"Physikalischen Institut, Universität Leipzig_2016","Physikalischen Institut, Universitat Leipzig",Leipzig,,Germany,2016,2016-06-24,2016-06-24,1,51.3406321,12.3747329,Lange Nacht der Wissenschaften,Francis Harvey,1,2015 to 2019,51.34057087,12.37789494,2016-01-01 00:00:00
American Library Association_2016,American Library Association,Orlando,Florida,United States,2016,2016-06-26,2016-06-26,1,28.5421109,-81.3790304,Alumni Reception,Mary Beth Roska,3,2015 to 2019,28.53762463,-81.37416763,2016-01-01 00:00:00
NIH Library_2016,NIH Library,Bethesda,Maryland,United States,2016,2016-06-30,2016-12-31,185,38.98127255,-77.12335871,NIH Library,Ya-Ling Lu,,2015 to 2019,38.98165157,-77.12024966,2016-01-01 00:00:00
Dalhousie University_2016,Dalhousie University,Halifax,Nova Scotia,Canada,2016,2016-07-10,2016-07-13,4,44.648618,-63.5859487,ACM Hypertext Conference,Jamie Blustein,,2015 to 2019,44.64523219,-63.59379982,2016-01-01 00:00:00
American Association of Law Libraries_2016,American Association of Law Libraries,Chicago,Illinois,United States,2016,2016-07-16,2016-07-19,4,41.8755616,-87.6244212,American Association of Law Libraries,Mary Beth Roska,3,2015 to 2019,41.8804372,-87.62805689,2016-01-01 00:00:00
Purdue University_2016,Purdue University,West Lafayette,Indiana,United States,2016,2016-08-03,2016-08-04,2,40.4258686,-86.9080655,2016 CRA-W/CDC CADENS Broadening Participation in Visualization (BPViz16) Workshop,Vetria Byrd,,2015 to 2019,40.42513331,-86.90930309,2016-01-01 00:00:00
Monroe County Public Library_2016,Monroe County Public Library,Bloomington,Indiana,United States,2016,2016-08-15,2016-09-07,24,39.1670396,-86.5342881,Macroscope Popup Exhibit | Maps & Macroscopes,Jeannette Lehr,1,2015 to 2019,39.16291211,-86.53466027,2016-01-01 00:00:00
"School of Informatics and Computing, Indiana University_2016","School of Informatics and Computing, Indiana University",Bloomington,Indiana,United States,2016,2016-09-08,2016-09-09,2,39.1670396,-86.5342881,Research Horizons,Martina Barnas,,2015 to 2019,39.16543267,-86.53118474,2016-01-01 00:00:00
Global TechMining Conference_2016,Global TechMining Conference,Valencia,,Spain,2016,2016-09-13,2016-09-13,1,39.4697065,-0.3763353,Global TechMining Conference,,,2015 to 2019,39.47177116,-0.375446795,2016-01-01 00:00:00
OECD_2016,OECD,Ghent,,Belgium,2016,2016-09-19,2016-09-21,3,51.0538286,3.7250121,Blue Sky Conference,,,2015 to 2019,51.05100998,3.718335378,2016-01-01 00:00:00
"ASTC Annual Conference, Museum of Science and Industry_2016","ASTC Annual Conference, Museum of Science and Industry",Tampa,Florida,United States,2016,2016-09-24,2016-09-27,4,27.9477595,-82.458444,Data Visualization Literacy,Katy Borner,63,2015 to 2019,27.9436484,-82.45654301,2016-01-01 00:00:00
Association for Information Science & Technology_2016,Association for Information Science & Technology,Copenhagen,,Denmark,2016,2016-10-14,2016-10-18,5,55.6867243,12.5700724,Association for Information Science & Technology,Mary Beth Roska,3,2015 to 2019,55.68794274,12.57312533,2016-01-01 00:00:00
"Grunwald Gallery, Indiana University_2016","Grunwald Gallery, Indiana University",Bloomington,Indiana,United States,2016,2016-10-21,2016-10-21,1,39.1670396,-86.5342881,[RE]Imagining Science: noon talks,Elizabeth Stirratt,,2015 to 2019,39.16826443,-86.53148915,2016-01-01 00:00:00
Museum Computer Network_2016,Museum Computer Network,New Orleans,Louisiana,United States,2016,2016-11-01,2016-11-04,4,29.9759983,-90.0782127,Museum Computer Network,Lisel Record,6,2015 to 2019,29.97346358,-90.0728088,2016-01-01 00:00:00
Arts & Humanities Council_2016,Arts & Humanities Council,Bloomington,Indiana,United States,2016,2016-11-03,2016-11-03,1,39.1670396,-86.5342881,First Thursdays Festival,Ed Comantale,1,2015 to 2019,39.16468441,-86.53011849,2016-01-01 00:00:00
IEEE-CIS EnCON Engineering Conference_2016,IEEE-CIS EnCON Engineering Conference,Indianapolis,Indiana,United States,2016,2016-11-05,2016-11-05,1,39.7683331,-86.1583502,IEEE-CIS EnCON Engineering Conference,,,2015 to 2019,39.76949335,-86.1560543,2016-01-01 00:00:00
Indiana Library Federation_2016,Indiana Library Federation,Indianapolis,Indiana,United States,2016,2016-11-09,2016-11-09,1,39.7683331,-86.1583502,Indiana Library Federation,Mary Beth Roska,3,2015 to 2019,39.76109268,-86.15870103,2016-01-01 00:00:00
Salt Palace Convention Center_2016,Salt Palace Convention Center,Salt Lake City,Utah,United States,2016,2016-11-13,2016-11-18,6,40.7596198,-111.886797,SuperComputing Conference 2016,Mike Boyles,,2015 to 2019,40.75258248,-111.8951018,2016-01-01 00:00:00
Cyberinfrastructure for Network Science Center_2016,Cyberinfrastructure for Network Science Center,Bloomington,Indiana,United States,2016,2016-11-14,2016-11-15,2,39.1670396,-86.5342881,Workshop: Web of Science as a Research Dataset,Katy Borner,63,2015 to 2019,39.16344738,-86.53214001,2016-01-01 00:00:00
CeWIT House_2016,CeWIT House,Bloomington,Indiana,United States,2016,2016-12-12,2016-12-12,1,39.1670396,-86.5342881,CeWIT House,Jenny Hartel,1,2015 to 2019,39.16597236,-86.53324966,2016-01-01 00:00:00
Smith Research Center_2016,Smith Research Center,Bloomington,Indiana,United States,2016,2016-12-19,2016-12-19,1,39.1670396,-86.5342881,Intelligent Systems Engineering,Julie Overfield,1,2015 to 2019,39.16859414,-86.53293021,2016-01-01 00:00:00
Vanderbilt University_2017,Vanderbilt University,Nashville,Tennessee,United States,2017,2017-01-23,2017-04-23,91,36.1622767,-86.7742984,Full Exhibit,Elizabeth Boyd,,2015 to 2019,36.16965348,-86.78068214,2017-01-01 00:00:00
School of Informatics and Computing_2017,School of Informatics and Computing,Bloomington,Indiana,United States,2017,2017-01-25,2017-01-25,1,39.1670396,-86.5342881,"Macroscope and IVMOOC Demo, Bridge to Informatics Symposium",Patrick Shih,,2015 to 2019,39.1713279,-86.53969338,2017-01-01 00:00:00
mm_2017,mm,Iowa City,Iowa,United States,2017,2017-02-06,2017-03-06,29,41.6612561,-91.5299106,University of Iowa,Ann Ricketts,,2015 to 2019,41.66045641,-91.52464484,2017-01-01 00:00:00
Indiana University Lifelong Learning_2017,Indiana University Lifelong Learning,Bloomington,Indiana,United States,2017,2017-02-22,2017-02-22,1,39.1670396,-86.5342881,Indiana University Lifelong Learning,Jim Pershing,3,2015 to 2019,39.16694452,-86.53448588,2017-01-01 00:00:00
School of Informatics and Computing and Computing Student Association_2017,School of Informatics and Computing and Computing Student Association,Bloomington,Indiana,United States,2017,2017-02-24,2017-02-24,1,39.1670396,-86.5342881,Catalyst Conference,,,2015 to 2019,39.16202695,-86.5308806,2017-01-01 00:00:00
IUNI_2017,IUNI,Bloomington,Indiana,United States,2017,2017-03-23,2017-03-23,1,39.1670396,-86.5342881,Conference on Big Data and Network Science,Weihua An,,2015 to 2019,39.16694703,-86.53414651,2017-01-01 00:00:00
